[
  {"id": "miami-us", "displayName": "Miami, Florida", "latitude": 25.7617, "longitude": -80.1918, "country": "United States", "aliases": ["Miami", "Miami FL", "Port of Miami", "PortMiami"]},
  {"id": "port-canaveral-us", "displayName": "Port Canaveral, Florida", "latitude": 28.4084, "longitude": -80.6100, "country": "United States", "aliases": ["Port Canaveral", "Cape Canaveral", "Canaveral", "Port Canaveral (Orlando)"]},
  {"id": "fort-lauderdale-us", "displayName": "Fort Lauderdale, Florida", "latitude": 26.1224, "longitude": -80.1373, "country": "United States", "aliases": ["Fort Lauderdale", "Ft Lauderdale", "Port Everglades", "Fort Lauderdale (Port Everglades)"]},
  {"id": "tampa-us", "displayName": "Tampa, Florida", "latitude": 27.9506, "longitude": -82.4572, "country": "United States", "aliases": ["Tampa", "Tampa FL", "Port Tampa Bay"]},
  {"id": "galveston-us", "displayName": "Galveston, Texas", "latitude": 29.3013, "longitude": -94.7977, "country": "United States", "aliases": ["Galveston", "Galveston TX", "Port of Galveston"]},
  {"id": "new-orleans-us", "displayName": "New Orleans, Louisiana", "latitude": 29.9511, "longitude": -90.0715, "country": "United States", "aliases": ["New Orleans", "New Orleans LA", "Port of New Orleans", "NOLA"]},
  {"id": "new-york-us", "displayName": "New York City, New York", "latitude": 40.6892, "longitude": -74.0445, "country": "United States", "aliases": ["New York", "New York City", "NYC", "Manhattan Cruise Terminal", "Cape Liberty", "Bayonne"]},
  {"id": "san-juan-pr", "displayName": "San Juan, Puerto Rico", "latitude": 18.4655, "longitude": -66.1057, "country": "Puerto Rico", "aliases": ["San Juan", "San Juan PR", "Puerto Rico"]},
  {"id": "honolulu-us", "displayName": "Honolulu, Hawaii", "latitude": 21.3069, "longitude": -157.8583, "country": "United States", "aliases": ["Honolulu", "Honolulu HI", "Oahu"]},
  {"id": "seattle-us", "displayName": "Seattle, Washington", "latitude": 47.6062, "longitude": -122.3321, "country": "United States", "aliases": ["Seattle", "Seattle WA", "Port of Seattle"]},
  {"id": "los-angeles-us", "displayName": "Los Angeles, California", "latitude": 33.7405, "longitude": -118.2730, "country": "United States", "aliases": ["Los Angeles", "LA", "San Pedro", "Long Beach", "Port of Los Angeles"]},
  {"id": "san-francisco-us", "displayName": "San Francisco, California", "latitude": 37.7749, "longitude": -122.4194, "country": "United States", "aliases": ["San Francisco", "San Francisco CA", "Port of San Francisco"]},
  {"id": "charleston-us", "displayName": "Charleston, South Carolina", "latitude": 32.7765, "longitude": -79.9311, "country": "United States", "aliases": ["Charleston", "Charleston SC", "Port of Charleston"]},
  {"id": "baltimore-us", "displayName": "Baltimore, Maryland", "latitude": 39.2854, "longitude": -76.6076, "country": "United States", "aliases": ["Baltimore", "Baltimore MD", "Port of Baltimore"]},

  {"id": "nassau-bs", "displayName": "Nassau, Bahamas", "latitude": 25.0480, "longitude": -77.3554, "country": "Bahamas", "aliases": ["Nassau", "Nassau Bahamas", "New Providence"]},
  {"id": "cococay-bs", "displayName": "CocoCay, Bahamas", "latitude": 25.7824, "longitude": -77.9208, "country": "Bahamas", "aliases": ["CocoCay", "Coco Cay", "Perfect Day at CocoCay", "Little Stirrup Cay"]},
  {"id": "freeport-bs", "displayName": "Freeport, Bahamas", "latitude": 26.5285, "longitude": -78.6967, "country": "Bahamas", "aliases": ["Freeport", "Freeport Bahamas", "Grand Bahama", "Grand Bahama Island"]},
  {"id": "half-moon-cay-bs", "displayName": "Half Moon Cay, Bahamas", "latitude": 24.0800, "longitude": -75.8800, "country": "Bahamas", "aliases": ["Half Moon Cay", "Half Moon Cay Bahamas", "Little San Salvador"]},
  {"id": "cozumel-mx", "displayName": "Cozumel, Mexico", "latitude": 20.4229, "longitude": -86.9223, "country": "Mexico", "aliases": ["Cozumel", "Isla de Cozumel", "San Miguel de Cozumel"]},
  {"id": "costa-maya-mx", "displayName": "Costa Maya, Mexico", "latitude": 18.7267, "longitude": -87.6950, "country": "Mexico", "aliases": ["Costa Maya", "Mahahual", "Majahual"]},
  {"id": "progreso-mx", "displayName": "Progreso, Mexico", "latitude": 21.2812, "longitude": -89.6651, "country": "Mexico", "aliases": ["Progreso", "Progreso (Merida)", "Progreso Yucatan"]},
  {"id": "cabo-san-lucas-mx", "displayName": "Cabo San Lucas, Mexico", "latitude": 22.8905, "longitude": -109.9167, "country": "Mexico", "aliases": ["Cabo San Lucas", "Cabo", "Los Cabos", "CSL"]},
  {"id": "puerto-vallarta-mx", "displayName": "Puerto Vallarta, Mexico", "latitude": 20.6534, "longitude": -105.2253, "country": "Mexico", "aliases": ["Puerto Vallarta", "Vallarta", "PVR"]},
  {"id": "ensenada-mx", "displayName": "Ensenada, Mexico", "latitude": 31.8667, "longitude": -116.5964, "country": "Mexico", "aliases": ["Ensenada"]},
  {"id": "grand-cayman-ky", "displayName": "Grand Cayman, Cayman Islands", "latitude": 19.2869, "longitude": -81.3674, "country": "Cayman Islands", "aliases": ["Grand Cayman", "George Town Grand Cayman", "Georgetown Cayman", "Cayman Islands"]},
  {"id": "jamaica-falmouth-jm", "displayName": "Falmouth, Jamaica", "latitude": 18.4898, "longitude": -77.6549, "country": "Jamaica", "aliases": ["Falmouth", "Falmouth Jamaica"]},
  {"id": "jamaica-ocho-rios-jm", "displayName": "Ocho Rios, Jamaica", "latitude": 18.4074, "longitude": -77.1050, "country": "Jamaica", "aliases": ["Ocho Rios", "Ocho Rios Jamaica"]},
  {"id": "jamaica-montego-bay-jm", "displayName": "Montego Bay, Jamaica", "latitude": 18.4762, "longitude": -77.8939, "country": "Jamaica", "aliases": ["Montego Bay", "Montego Bay Jamaica", "MoBay"]},
  {"id": "st-thomas-vi", "displayName": "St. Thomas, U.S. Virgin Islands", "latitude": 18.3358, "longitude": -64.9307, "country": "U.S. Virgin Islands", "aliases": ["St Thomas", "St. Thomas", "Saint Thomas", "Charlotte Amalie", "USVI"]},
  {"id": "st-maarten-sx", "displayName": "St. Maarten", "latitude": 18.0425, "longitude": -63.0548, "country": "Sint Maarten", "aliases": ["St Maarten", "St. Maarten", "Saint Maarten", "St Martin", "Sint Maarten", "Philipsburg"]},
  {"id": "san-juan-usvi", "displayName": "St. Croix, U.S. Virgin Islands", "latitude": 17.7470, "longitude": -64.7031, "country": "U.S. Virgin Islands", "aliases": ["St Croix", "St. Croix", "Saint Croix", "Frederiksted"]},
  {"id": "aruba-aw", "displayName": "Oranjestad, Aruba", "latitude": 12.5092, "longitude": -70.0086, "country": "Aruba", "aliases": ["Aruba", "Oranjestad"]},
  {"id": "curacao-cw", "displayName": "Willemstad, Curacao", "latitude": 12.1696, "longitude": -68.9900, "country": "Curacao", "aliases": ["Curacao", "Curaçao", "Willemstad"]},
  {"id": "bonaire-bq", "displayName": "Kralendijk, Bonaire", "latitude": 12.1443, "longitude": -68.2655, "country": "Bonaire", "aliases": ["Bonaire", "Kralendijk"]},
  {"id": "barbados-bb", "displayName": "Bridgetown, Barbados", "latitude": 13.1132, "longitude": -59.5988, "country": "Barbados", "aliases": ["Barbados", "Bridgetown"]},
  {"id": "st-lucia-lc", "displayName": "Castries, St. Lucia", "latitude": 14.0101, "longitude": -60.9875, "country": "Saint Lucia", "aliases": ["St Lucia", "St. Lucia", "Saint Lucia", "Castries"]},
  {"id": "antigua-ag", "displayName": "St. John's, Antigua", "latitude": 17.1274, "longitude": -61.8468, "country": "Antigua and Barbuda", "aliases": ["Antigua", "St Johns Antigua", "St. John's Antigua"]},
  {"id": "st-kitts-kn", "displayName": "Basseterre, St. Kitts", "latitude": 17.2948, "longitude": -62.7261, "country": "Saint Kitts and Nevis", "aliases": ["St Kitts", "St. Kitts", "Saint Kitts", "Basseterre"]},
  {"id": "tortola-vg", "displayName": "Tortola, British Virgin Islands", "latitude": 18.4207, "longitude": -64.6399, "country": "British Virgin Islands", "aliases": ["Tortola", "BVI", "British Virgin Islands", "Road Town"]},
  {"id": "dominica-dm", "displayName": "Roseau, Dominica", "latitude": 15.3010, "longitude": -61.3872, "country": "Dominica", "aliases": ["Dominica", "Roseau"]},
  {"id": "grenada-gd", "displayName": "St. George's, Grenada", "latitude": 12.0564, "longitude": -61.7485, "country": "Grenada", "aliases": ["Grenada", "St Georges Grenada", "St. George's"]},
  {"id": "trinidad-tt", "displayName": "Port of Spain, Trinidad", "latitude": 10.6596, "longitude": -61.5086, "country": "Trinidad and Tobago", "aliases": ["Trinidad", "Port of Spain"]},
  {"id": "roatan-hn", "displayName": "Roatan, Honduras", "latitude": 16.3200, "longitude": -86.5234, "country": "Honduras", "aliases": ["Roatan", "Roatán", "Bay Islands"]},
  {"id": "belize-bz", "displayName": "Belize City, Belize", "latitude": 17.4989, "longitude": -88.1886, "country": "Belize", "aliases": ["Belize", "Belize City"]},
  {"id": "harvest-caye-bz", "displayName": "Harvest Caye, Belize", "latitude": 16.4769, "longitude": -88.4292, "country": "Belize", "aliases": ["Harvest Caye", "Harvest Cay"]},
  {"id": "cartagena-co", "displayName": "Cartagena, Colombia", "latitude": 10.3910, "longitude": -75.5364, "country": "Colombia", "aliases": ["Cartagena", "Cartagena Colombia"]},
  {"id": "colon-pa", "displayName": "Colon, Panama", "latitude": 9.3547, "longitude": -79.9017, "country": "Panama", "aliases": ["Colon", "Colón", "Panama Canal", "Cristobal"]},
  {"id": "bermuda-bm", "displayName": "King's Wharf, Bermuda", "latitude": 32.3293, "longitude": -64.8350, "country": "Bermuda", "aliases": ["Bermuda", "Kings Wharf", "King's Wharf", "Royal Naval Dockyard", "Hamilton Bermuda"]},

  {"id": "juneau-us", "displayName": "Juneau, Alaska", "latitude": 58.3005, "longitude": -134.4197, "country": "United States", "aliases": ["Juneau", "Juneau AK", "Juneau Alaska"]},
  {"id": "skagway-us", "displayName": "Skagway, Alaska", "latitude": 59.4583, "longitude": -135.3139, "country": "United States", "aliases": ["Skagway", "Skagway AK", "Skagway Alaska"]},
  {"id": "ketchikan-us", "displayName": "Ketchikan, Alaska", "latitude": 55.3422, "longitude": -131.6461, "country": "United States", "aliases": ["Ketchikan", "Ketchikan AK", "Ketchikan Alaska"]},
  {"id": "sitka-us", "displayName": "Sitka, Alaska", "latitude": 57.0531, "longitude": -135.3300, "country": "United States", "aliases": ["Sitka", "Sitka AK", "Sitka Alaska"]},
  {"id": "icy-strait-us", "displayName": "Icy Strait Point, Alaska", "latitude": 58.1214, "longitude": -135.4376, "country": "United States", "aliases": ["Icy Strait Point", "Icy Strait", "Hoonah"]},
  {"id": "victoria-ca", "displayName": "Victoria, British Columbia", "latitude": 48.4284, "longitude": -123.3656, "country": "Canada", "aliases": ["Victoria", "Victoria BC", "Victoria Canada"]},
  {"id": "vancouver-ca", "displayName": "Vancouver, British Columbia", "latitude": 49.2827, "longitude": -123.1207, "country": "Canada", "aliases": ["Vancouver", "Vancouver BC", "Vancouver Canada"]},

  {"id": "southampton-gb", "displayName": "Southampton, United Kingdom", "latitude": 50.9097, "longitude": -1.4044, "country": "United Kingdom", "aliases": ["Southampton", "Southampton England", "Southampton UK", "Port of Southampton"]},
  {"id": "newcastle-gb", "displayName": "Newcastle (Tyne), United Kingdom", "latitude": 54.9783, "longitude": -1.6174, "country": "United Kingdom", "aliases": ["Newcastle", "Newcastle upon Tyne", "Newcastle (Tyne)", "Port of Tyne", "Newcastle England", "Newcastle UK"]},
  {"id": "edinburgh-gb", "displayName": "Edinburgh (Leith), United Kingdom", "latitude": 55.9533, "longitude": -3.1883, "country": "United Kingdom", "aliases": ["Edinburgh", "Leith", "Edinburgh (Leith)", "South Queensferry", "Newhaven Edinburgh"]},
  {"id": "liverpool-gb", "displayName": "Liverpool, United Kingdom", "latitude": 53.4084, "longitude": -2.9916, "country": "United Kingdom", "aliases": ["Liverpool", "Liverpool England", "Liverpool UK"]},
  {"id": "dover-gb", "displayName": "Dover, United Kingdom", "latitude": 51.1279, "longitude": 1.3134, "country": "United Kingdom", "aliases": ["Dover", "Dover England", "Port of Dover"]},
  {"id": "barcelona-es", "displayName": "Barcelona, Spain", "latitude": 41.3851, "longitude": 2.1734, "country": "Spain", "aliases": ["Barcelona"]},
  {"id": "palma-es", "displayName": "Palma de Mallorca, Spain", "latitude": 39.5696, "longitude": 2.6502, "country": "Spain", "aliases": ["Palma", "Palma de Mallorca", "Mallorca", "Majorca"]},
  {"id": "malaga-es", "displayName": "Malaga, Spain", "latitude": 36.7213, "longitude": -4.4214, "country": "Spain", "aliases": ["Malaga", "Málaga"]},
  {"id": "cadiz-es", "displayName": "Cadiz, Spain", "latitude": 36.5298, "longitude": -6.2926, "country": "Spain", "aliases": ["Cadiz", "Cádiz"]},
  {"id": "vigo-es", "displayName": "Vigo, Spain", "latitude": 42.2406, "longitude": -8.7207, "country": "Spain", "aliases": ["Vigo"]},
  {"id": "civitavecchia-it", "displayName": "Civitavecchia (Rome), Italy", "latitude": 42.0930, "longitude": 11.7966, "country": "Italy", "aliases": ["Civitavecchia", "Rome", "Civitavecchia (Rome)", "Port of Rome"]},
  {"id": "naples-it", "displayName": "Naples, Italy", "latitude": 40.8518, "longitude": 14.2681, "country": "Italy", "aliases": ["Naples", "Napoli"]},
  {"id": "venice-it", "displayName": "Venice, Italy", "latitude": 45.4408, "longitude": 12.3155, "country": "Italy", "aliases": ["Venice", "Venezia"]},
  {"id": "genoa-it", "displayName": "Genoa, Italy", "latitude": 44.4056, "longitude": 8.9463, "country": "Italy", "aliases": ["Genoa", "Genova"]},
  {"id": "livorno-it", "displayName": "Livorno (Florence), Italy", "latitude": 43.5485, "longitude": 10.3106, "country": "Italy", "aliases": ["Livorno", "Livorno (Florence)", "Florence", "Leghorn"]},
  {"id": "messina-it", "displayName": "Messina, Italy", "latitude": 38.1938, "longitude": 15.5540, "country": "Italy", "aliases": ["Messina", "Messina Sicily"]},
  {"id": "marseille-fr", "displayName": "Marseille, France", "latitude": 43.2965, "longitude": 5.3698, "country": "France", "aliases": ["Marseille", "Marseilles"]},
  {"id": "le-havre-fr", "displayName": "Le Havre (Paris), France", "latitude": 49.4944, "longitude": 0.1079, "country": "France", "aliases": ["Le Havre", "Le Havre (Paris)", "Paris"]},
  {"id": "cannes-fr", "displayName": "Cannes, France", "latitude": 43.5528, "longitude": 7.0174, "country": "France", "aliases": ["Cannes"]},
  {"id": "lisbon-pt", "displayName": "Lisbon, Portugal", "latitude": 38.7223, "longitude": -9.1393, "country": "Portugal", "aliases": ["Lisbon", "Lisboa"]},
  {"id": "funchal-pt", "displayName": "Funchal, Madeira", "latitude": 32.6669, "longitude": -16.9241, "country": "Portugal", "aliases": ["Funchal", "Madeira", "Funchal Madeira"]},
  {"id": "ponta-delgada-pt", "displayName": "Ponta Delgada, Azores", "latitude": 37.7483, "longitude": -25.6666, "country": "Portugal", "aliases": ["Ponta Delgada", "Azores", "São Miguel"]},
  {"id": "piraeus-gr", "displayName": "Piraeus (Athens), Greece", "latitude": 37.9475, "longitude": 23.6372, "country": "Greece", "aliases": ["Piraeus", "Athens", "Piraeus (Athens)", "Port of Piraeus"]},
  {"id": "santorini-gr", "displayName": "Santorini, Greece", "latitude": 36.3932, "longitude": 25.4615, "country": "Greece", "aliases": ["Santorini", "Thira", "Fira"]},
  {"id": "mykonos-gr", "displayName": "Mykonos, Greece", "latitude": 37.4467, "longitude": 25.3289, "country": "Greece", "aliases": ["Mykonos"]},
  {"id": "corfu-gr", "displayName": "Corfu, Greece", "latitude": 39.6243, "longitude": 19.9217, "country": "Greece", "aliases": ["Corfu", "Kerkyra"]},
  {"id": "dubrovnik-hr", "displayName": "Dubrovnik, Croatia", "latitude": 42.6507, "longitude": 18.0944, "country": "Croatia", "aliases": ["Dubrovnik"]},
  {"id": "kotor-me", "displayName": "Kotor, Montenegro", "latitude": 42.4247, "longitude": 18.7712, "country": "Montenegro", "aliases": ["Kotor"]},
  {"id": "istanbul-tr", "displayName": "Istanbul, Turkey", "latitude": 41.0082, "longitude": 28.9784, "country": "Turkey", "aliases": ["Istanbul", "Constantinople"]},
  {"id": "kusadasi-tr", "displayName": "Kusadasi (Ephesus), Turkey", "latitude": 37.8579, "longitude": 27.2610, "country": "Turkey", "aliases": ["Kusadasi", "Kuşadası", "Ephesus", "Kusadasi (Ephesus)"]},
  {"id": "valletta-mt", "displayName": "Valletta, Malta", "latitude": 35.8989, "longitude": 14.5146, "country": "Malta", "aliases": ["Valletta", "Malta"]},

  {"id": "copenhagen-dk", "displayName": "Copenhagen, Denmark", "latitude": 55.6761, "longitude": 12.5683, "country": "Denmark", "aliases": ["Copenhagen", "København"]},
  {"id": "stockholm-se", "displayName": "Stockholm, Sweden", "latitude": 59.3293, "longitude": 18.0686, "country": "Sweden", "aliases": ["Stockholm"]},
  {"id": "oslo-no", "displayName": "Oslo, Norway", "latitude": 59.9139, "longitude": 10.7522, "country": "Norway", "aliases": ["Oslo"]},
  {"id": "bergen-no", "displayName": "Bergen, Norway", "latitude": 60.3913, "longitude": 5.3221, "country": "Norway", "aliases": ["Bergen"]},
  {"id": "geiranger-no", "displayName": "Geiranger, Norway", "latitude": 62.1012, "longitude": 7.2060, "country": "Norway", "aliases": ["Geiranger", "Geirangerfjord"]},
  {"id": "flam-no", "displayName": "Flam, Norway", "latitude": 60.8628, "longitude": 7.1137, "country": "Norway", "aliases": ["Flam", "Flåm"]},
  {"id": "alesund-no", "displayName": "Alesund, Norway", "latitude": 62.4722, "longitude": 6.1495, "country": "Norway", "aliases": ["Alesund", "Ålesund"]},
  {"id": "stavanger-no", "displayName": "Stavanger, Norway", "latitude": 58.9700, "longitude": 5.7331, "country": "Norway", "aliases": ["Stavanger"]},
  {"id": "helsinki-fi", "displayName": "Helsinki, Finland", "latitude": 60.1699, "longitude": 24.9384, "country": "Finland", "aliases": ["Helsinki"]},
  {"id": "tallinn-ee", "displayName": "Tallinn, Estonia", "latitude": 59.4370, "longitude": 24.7536, "country": "Estonia", "aliases": ["Tallinn"]},
  {"id": "st-petersburg-ru", "displayName": "St. Petersburg, Russia", "latitude": 59.9343, "longitude": 30.3351, "country": "Russia", "aliases": ["St Petersburg", "St. Petersburg", "Saint Petersburg"]},
  {"id": "amsterdam-nl", "displayName": "Amsterdam, Netherlands", "latitude": 52.3676, "longitude": 4.9041, "country": "Netherlands", "aliases": ["Amsterdam"]},
  {"id": "reykjavik-is", "displayName": "Reykjavik, Iceland", "latitude": 64.1466, "longitude": -21.9426, "country": "Iceland", "aliases": ["Reykjavik", "Reykjavík", "Iceland"]},
  {"id": "akureyri-is", "displayName": "Akureyri, Iceland", "latitude": 65.6835, "longitude": -18.0878, "country": "Iceland", "aliases": ["Akureyri"]},

  {"id": "sydney-au", "displayName": "Sydney, Australia", "latitude": -33.8688, "longitude": 151.2093, "country": "Australia", "aliases": ["Sydney", "Sydney Australia"]},
  {"id": "auckland-nz", "displayName": "Auckland, New Zealand", "latitude": -36.8485, "longitude": 174.7633, "country": "New Zealand", "aliases": ["Auckland"]},

  {"id": "singapore-sg", "displayName": "Singapore", "latitude": 1.2644, "longitude": 103.8198, "country": "Singapore", "aliases": ["Singapore", "Port of Singapore"]},
  {"id": "hong-kong-hk", "displayName": "Hong Kong", "latitude": 22.3193, "longitude": 114.1694, "country": "Hong Kong", "aliases": ["Hong Kong"]},
  {"id": "tokyo-jp", "displayName": "Tokyo (Yokohama), Japan", "latitude": 35.4437, "longitude": 139.6380, "country": "Japan", "aliases": ["Tokyo", "Yokohama", "Tokyo (Yokohama)"]},

  {"id": "dubai-ae", "displayName": "Dubai, UAE", "latitude": 25.2048, "longitude": 55.2708, "country": "United Arab Emirates", "aliases": ["Dubai", "Port Rashid", "Dubai UAE"]},

  {"id": "santos-br", "displayName": "Santos (Sao Paulo), Brazil", "latitude": -23.9608, "longitude": -46.3336, "country": "Brazil", "aliases": ["Santos", "Sao Paulo", "São Paulo"]},
  {"id": "buenos-aires-ar", "displayName": "Buenos Aires, Argentina", "latitude": -34.6037, "longitude": -58.3816, "country": "Argentina", "aliases": ["Buenos Aires"]},
  {"id": "valparaiso-cl", "displayName": "Valparaiso, Chile", "latitude": -33.0472, "longitude": -71.6127, "country": "Chile", "aliases": ["Valparaiso", "Valparaíso", "Santiago"]},

  {"id": "castaway-cay-bs", "displayName": "Castaway Cay, Bahamas", "latitude": 26.0856, "longitude": -77.5551, "country": "Bahamas", "aliases": ["Castaway Cay", "Disney Castaway Cay"]},
  {"id": "ocean-cay-bs", "displayName": "Ocean Cay, Bahamas", "latitude": 25.3661, "longitude": -79.2490, "country": "Bahamas", "aliases": ["Ocean Cay", "Ocean Cay MSC"]},
  {"id": "labadee-ht", "displayName": "Labadee, Haiti", "latitude": 19.7817, "longitude": -72.2500, "country": "Haiti", "aliases": ["Labadee", "Labadie"]},
  {"id": "great-stirrup-cay-bs", "displayName": "Great Stirrup Cay, Bahamas", "latitude": 25.8308, "longitude": -77.9103, "country": "Bahamas", "aliases": ["Great Stirrup Cay", "Stirrup Cay"]},

  {"id": "tenerife-es", "displayName": "Tenerife, Canary Islands", "latitude": 28.4636, "longitude": -16.2518, "country": "Spain", "aliases": ["Tenerife", "Santa Cruz de Tenerife", "Canary Islands"]},
  {"id": "lanzarote-es", "displayName": "Lanzarote, Canary Islands", "latitude": 28.9630, "longitude": -13.5477, "country": "Spain", "aliases": ["Lanzarote", "Arrecife"]},
  {"id": "las-palmas-es", "displayName": "Las Palmas, Gran Canaria", "latitude": 28.1235, "longitude": -15.4363, "country": "Spain", "aliases": ["Las Palmas", "Gran Canaria", "Grand Canary"]},

  {"id": "alicante-es", "displayName": "Alicante, Spain", "latitude": 38.3452, "longitude": -0.4810, "country": "Spain", "aliases": ["Alicante"]},
  {"id": "ibiza-es", "displayName": "Ibiza, Spain", "latitude": 38.9067, "longitude": 1.4206, "country": "Spain", "aliases": ["Ibiza", "Eivissa"]},
  {"id": "cartagena-es", "displayName": "Cartagena, Spain", "latitude": 37.6057, "longitude": -0.9862, "country": "Spain", "aliases": ["Cartagena Spain"]},
  {"id": "valencia-es", "displayName": "Valencia, Spain", "latitude": 39.4699, "longitude": -0.3763, "country": "Spain", "aliases": ["Valencia"]},
  {"id": "bilbao-es", "displayName": "Bilbao, Spain", "latitude": 43.2630, "longitude": -2.9350, "country": "Spain", "aliases": ["Bilbao"]},
  {"id": "la-coruna-es", "displayName": "La Coruna, Spain", "latitude": 43.3623, "longitude": -8.4115, "country": "Spain", "aliases": ["La Coruna", "A Coruña", "La Coruña"]},
  {"id": "gibraltar-gi", "displayName": "Gibraltar", "latitude": 36.1408, "longitude": -5.3536, "country": "Gibraltar", "aliases": ["Gibraltar"]},
  {"id": "monte-carlo-mc", "displayName": "Monte Carlo, Monaco", "latitude": 43.7384, "longitude": 7.4246, "country": "Monaco", "aliases": ["Monte Carlo", "Monaco"]},
  {"id": "nice-fr", "displayName": "Nice (Villefranche), France", "latitude": 43.6961, "longitude": 7.3082, "country": "France", "aliases": ["Nice", "Villefranche", "Villefranche-sur-Mer", "Nice (Villefranche)"]},
  {"id": "ajaccio-fr", "displayName": "Ajaccio, Corsica", "latitude": 41.9192, "longitude": 8.7386, "country": "France", "aliases": ["Ajaccio", "Corsica"]},
  {"id": "bordeaux-fr", "displayName": "Bordeaux, France", "latitude": 44.8378, "longitude": -0.5792, "country": "France", "aliases": ["Bordeaux"]},
  {"id": "la-spezia-it", "displayName": "La Spezia (Cinque Terre), Italy", "latitude": 44.1024, "longitude": 9.8241, "country": "Italy", "aliases": ["La Spezia", "Cinque Terre", "La Spezia (Cinque Terre)"]},
  {"id": "ravenna-it", "displayName": "Ravenna, Italy", "latitude": 44.4184, "longitude": 12.2035, "country": "Italy", "aliases": ["Ravenna"]},
  {"id": "bari-it", "displayName": "Bari, Italy", "latitude": 41.1171, "longitude": 16.8719, "country": "Italy", "aliases": ["Bari"]},
  {"id": "catania-it", "displayName": "Catania, Sicily", "latitude": 37.5079, "longitude": 15.0830, "country": "Italy", "aliases": ["Catania", "Catania Sicily"]},
  {"id": "palermo-it", "displayName": "Palermo, Sicily", "latitude": 38.1157, "longitude": 13.3615, "country": "Italy", "aliases": ["Palermo", "Palermo Sicily"]},
  {"id": "cagliari-it", "displayName": "Cagliari, Sardinia", "latitude": 39.2238, "longitude": 9.1217, "country": "Italy", "aliases": ["Cagliari", "Sardinia"]},
  {"id": "amalfi-it", "displayName": "Amalfi Coast (Salerno), Italy", "latitude": 40.6824, "longitude": 14.7681, "country": "Italy", "aliases": ["Amalfi", "Salerno", "Amalfi Coast"]},
  {"id": "trieste-it", "displayName": "Trieste, Italy", "latitude": 45.6495, "longitude": 13.7768, "country": "Italy", "aliases": ["Trieste"]},
  {"id": "porto-pt", "displayName": "Porto (Leixoes), Portugal", "latitude": 41.1838, "longitude": -8.7056, "country": "Portugal", "aliases": ["Porto", "Leixoes", "Leixões", "Porto (Leixoes)"]},
  {"id": "split-hr", "displayName": "Split, Croatia", "latitude": 43.5081, "longitude": 16.4402, "country": "Croatia", "aliases": ["Split"]},
  {"id": "zadar-hr", "displayName": "Zadar, Croatia", "latitude": 44.1194, "longitude": 15.2314, "country": "Croatia", "aliases": ["Zadar"]},
  {"id": "koper-si", "displayName": "Koper, Slovenia", "latitude": 45.5469, "longitude": 13.7290, "country": "Slovenia", "aliases": ["Koper"]},
  {"id": "rhodes-gr", "displayName": "Rhodes, Greece", "latitude": 36.4510, "longitude": 28.2227, "country": "Greece", "aliases": ["Rhodes"]},
  {"id": "crete-gr", "displayName": "Heraklion, Crete", "latitude": 35.3387, "longitude": 25.1442, "country": "Greece", "aliases": ["Heraklion", "Crete", "Iraklion"]},
  {"id": "bodrum-tr", "displayName": "Bodrum, Turkey", "latitude": 37.0344, "longitude": 27.4305, "country": "Turkey", "aliases": ["Bodrum"]},
  {"id": "limassol-cy", "displayName": "Limassol, Cyprus", "latitude": 34.6786, "longitude": 33.0413, "country": "Cyprus", "aliases": ["Limassol", "Cyprus"]},
  {"id": "haifa-il", "displayName": "Haifa, Israel", "latitude": 32.7940, "longitude": 34.9896, "country": "Israel", "aliases": ["Haifa", "Israel"]},
  {"id": "alexandria-eg", "displayName": "Alexandria, Egypt", "latitude": 31.2001, "longitude": 29.9187, "country": "Egypt", "aliases": ["Alexandria", "Egypt"]},
  {"id": "casablanca-ma", "displayName": "Casablanca, Morocco", "latitude": 33.5731, "longitude": -7.5898, "country": "Morocco", "aliases": ["Casablanca"]},
  {"id": "tangier-ma", "displayName": "Tangier, Morocco", "latitude": 35.7595, "longitude": -5.8340, "country": "Morocco", "aliases": ["Tangier", "Tanger"]},
  {"id": "tunis-tn", "displayName": "La Goulette (Tunis), Tunisia", "latitude": 36.8190, "longitude": 10.3050, "country": "Tunisia", "aliases": ["La Goulette", "Tunis", "Tunisia"]},

  {"id": "maui-us", "displayName": "Maui (Kahului), Hawaii", "latitude": 20.8953, "longitude": -156.4764, "country": "United States", "aliases": ["Maui", "Kahului", "Lahaina"]},
  {"id": "kona-us", "displayName": "Kona (Kailua-Kona), Hawaii", "latitude": 19.6400, "longitude": -155.9969, "country": "United States", "aliases": ["Kona", "Kailua-Kona", "Big Island"]},
  {"id": "hilo-us", "displayName": "Hilo, Hawaii", "latitude": 19.7297, "longitude": -155.0900, "country": "United States", "aliases": ["Hilo"]},
  {"id": "nawiliwili-us", "displayName": "Nawiliwili (Kauai), Hawaii", "latitude": 21.9544, "longitude": -159.3560, "country": "United States", "aliases": ["Nawiliwili", "Kauai", "Nawiliwili (Kauai)"]},

  {"id": "mazatlan-mx", "displayName": "Mazatlan, Mexico", "latitude": 23.2494, "longitude": -106.4111, "country": "Mexico", "aliases": ["Mazatlan", "Mazatlán"]},
  {"id": "huatulco-mx", "displayName": "Huatulco, Mexico", "latitude": 15.7690, "longitude": -96.1340, "country": "Mexico", "aliases": ["Huatulco"]},
  {"id": "ixtapa-mx", "displayName": "Ixtapa (Zihuatanejo), Mexico", "latitude": 17.6367, "longitude": -101.5528, "country": "Mexico", "aliases": ["Ixtapa", "Zihuatanejo", "Ixtapa/Zihuatanejo"]},

  {"id": "limon-cr", "displayName": "Puerto Limon, Costa Rica", "latitude": 9.9907, "longitude": -83.0359, "country": "Costa Rica", "aliases": ["Puerto Limon", "Limon", "Costa Rica"]},
  {"id": "puntarenas-cr", "displayName": "Puntarenas, Costa Rica", "latitude": 9.9762, "longitude": -84.8382, "country": "Costa Rica", "aliases": ["Puntarenas"]},
  {"id": "martinique-mq", "displayName": "Fort-de-France, Martinique", "latitude": 14.6161, "longitude": -61.0588, "country": "Martinique", "aliases": ["Martinique", "Fort-de-France"]},
  {"id": "guadeloupe-gp", "displayName": "Pointe-a-Pitre, Guadeloupe", "latitude": 16.2411, "longitude": -61.5339, "country": "Guadeloupe", "aliases": ["Guadeloupe", "Pointe-a-Pitre", "Pointe-à-Pitre"]},
  {"id": "grand-turk-tc", "displayName": "Grand Turk, Turks and Caicos", "latitude": 21.4612, "longitude": -71.1367, "country": "Turks and Caicos", "aliases": ["Grand Turk", "Turks and Caicos"]},
  {"id": "amber-cove-do", "displayName": "Amber Cove, Dominican Republic", "latitude": 19.7970, "longitude": -70.7171, "country": "Dominican Republic", "aliases": ["Amber Cove", "Puerto Plata"]},
  {"id": "la-romana-do", "displayName": "La Romana, Dominican Republic", "latitude": 18.4274, "longitude": -68.9728, "country": "Dominican Republic", "aliases": ["La Romana"]},
  {"id": "kings-wharf-bm", "displayName": "King's Wharf, Bermuda", "latitude": 32.3293, "longitude": -64.8350, "country": "Bermuda", "aliases": ["Kings Wharf"]},

  {"id": "colombo-lk", "displayName": "Colombo, Sri Lanka", "latitude": 6.9271, "longitude": 79.8612, "country": "Sri Lanka", "aliases": ["Colombo", "Sri Lanka"]},
  {"id": "mumbai-in", "displayName": "Mumbai, India", "latitude": 18.9220, "longitude": 72.8347, "country": "India", "aliases": ["Mumbai", "Bombay"]},
  {"id": "phuket-th", "displayName": "Phuket, Thailand", "latitude": 7.8804, "longitude": 98.3923, "country": "Thailand", "aliases": ["Phuket"]},
  {"id": "ho-chi-minh-vn", "displayName": "Ho Chi Minh City (Phu My), Vietnam", "latitude": 10.5515, "longitude": 107.0144, "country": "Vietnam", "aliases": ["Ho Chi Minh City", "Phu My", "Saigon"]},
  {"id": "manila-ph", "displayName": "Manila, Philippines", "latitude": 14.5995, "longitude": 120.9842, "country": "Philippines", "aliases": ["Manila"]},
  {"id": "bali-id", "displayName": "Bali (Benoa), Indonesia", "latitude": -8.7467, "longitude": 115.2115, "country": "Indonesia", "aliases": ["Bali", "Benoa", "Denpasar"]},
  {"id": "penang-my", "displayName": "Penang, Malaysia", "latitude": 5.4141, "longitude": 100.3288, "country": "Malaysia", "aliases": ["Penang", "Georgetown Penang"]},
  {"id": "kobe-jp", "displayName": "Kobe, Japan", "latitude": 34.6901, "longitude": 135.1956, "country": "Japan", "aliases": ["Kobe"]},
  {"id": "nagasaki-jp", "displayName": "Nagasaki, Japan", "latitude": 32.7503, "longitude": 129.8779, "country": "Japan", "aliases": ["Nagasaki"]},
  {"id": "busan-kr", "displayName": "Busan, South Korea", "latitude": 35.1796, "longitude": 129.0756, "country": "South Korea", "aliases": ["Busan", "Pusan"]},
  {"id": "shanghai-cn", "displayName": "Shanghai, China", "latitude": 31.2304, "longitude": 121.4737, "country": "China", "aliases": ["Shanghai"]},

  {"id": "cape-town-za", "displayName": "Cape Town, South Africa", "latitude": -33.9249, "longitude": 18.4241, "country": "South Africa", "aliases": ["Cape Town"]},
  {"id": "durban-za", "displayName": "Durban, South Africa", "latitude": -29.8587, "longitude": 31.0218, "country": "South Africa", "aliases": ["Durban"]},

  {"id": "ushuaia-ar", "displayName": "Ushuaia, Argentina", "latitude": -54.8019, "longitude": -68.3030, "country": "Argentina", "aliases": ["Ushuaia"]},
  {"id": "rio-br", "displayName": "Rio de Janeiro, Brazil", "latitude": -22.9068, "longitude": -43.1729, "country": "Brazil", "aliases": ["Rio de Janeiro", "Rio"]},
  {"id": "lima-pe", "displayName": "Lima (Callao), Peru", "latitude": -12.0464, "longitude": -77.1428, "country": "Peru", "aliases": ["Lima", "Callao", "Lima (Callao)"]},
  {"id": "montevideo-uy", "displayName": "Montevideo, Uruguay", "latitude": -34.9011, "longitude": -56.1645, "country": "Uruguay", "aliases": ["Montevideo"]},

  {"id": "melbourne-au", "displayName": "Melbourne, Australia", "latitude": -37.8136, "longitude": 144.9631, "country": "Australia", "aliases": ["Melbourne"]},
  {"id": "brisbane-au", "displayName": "Brisbane, Australia", "latitude": -27.4705, "longitude": 153.0260, "country": "Australia", "aliases": ["Brisbane"]},
  {"id": "cairns-au", "displayName": "Cairns, Australia", "latitude": -16.9186, "longitude": 145.7781, "country": "Australia", "aliases": ["Cairns"]},
  {"id": "wellington-nz", "displayName": "Wellington, New Zealand", "latitude": -41.2865, "longitude": 174.7762, "country": "New Zealand", "aliases": ["Wellington"]},
  {"id": "christchurch-nz", "displayName": "Christchurch (Lyttelton), New Zealand", "latitude": -43.6047, "longitude": 172.7184, "country": "New Zealand", "aliases": ["Christchurch", "Lyttelton"]},
  {"id": "queenstown-nz", "displayName": "Queenstown (Milford Sound), New Zealand", "latitude": -45.0312, "longitude": 168.6626, "country": "New Zealand", "aliases": ["Queenstown", "Milford Sound", "Fiordland"]},
  {"id": "suva-fj", "displayName": "Suva, Fiji", "latitude": -18.1416, "longitude": 178.4419, "country": "Fiji", "aliases": ["Suva", "Fiji"]},
  {"id": "noumea-nc", "displayName": "Noumea, New Caledonia", "latitude": -22.2711, "longitude": 166.4416, "country": "New Caledonia", "aliases": ["Noumea", "New Caledonia"]},
  {"id": "papeete-pf", "displayName": "Papeete, Tahiti", "latitude": -17.5516, "longitude": -149.5585, "country": "French Polynesia", "aliases": ["Papeete", "Tahiti"]},
  {"id": "bora-bora-pf", "displayName": "Bora Bora, French Polynesia", "latitude": -16.5004, "longitude": -151.7415, "country": "French Polynesia", "aliases": ["Bora Bora"]}
]
