[
  {"id": "miami-us", "displayName": "Miami, Florida", "latitude": 25.7617, "longitude": -80.1918, "country": "United States", "aliases": ["Miami", "Miami FL", "Port of Miami", "PortMiami"]},
  {"id": "port-canaveral-us", "displayName": "Port Canaveral, Florida", "latitude": 28.4084, "longitude": -80.6100, "country": "United States", "aliases": ["Port Canaveral", "Cape Canaveral", "Canaveral", "Port Canaveral (Orlando)"]},
  {"id": "fort-lauderdale-us", "displayName": "Fort Lauderdale, Florida", "latitude": 26.1224, "longitude": -80.1373, "country": "United States", "aliases": ["Fort Lauderdale", "Ft Lauderdale", "Port Everglades", "Fort Lauderdale (Port Everglades)"]},
  {"id": "tampa-us", "displayName": "Tampa, Florida", "latitude": 27.9506, "longitude": -82.4572, "country": "United States", "aliases": ["Tampa", "Tampa FL", "Port Tampa Bay"]},
  {"id": "galveston-us", "displayName": "Galveston, Texas", "latitude": 29.3013, "longitude": -94.7977, "country": "United States", "aliases": ["Galveston", "Galveston TX", "Port of Galveston"]},
  {"id": "new-orleans-us", "displayName": "New Orleans, Louisiana", "latitude": 29.9511, "longitude": -90.0715, "country": "United States", "aliases": ["New Orleans", "New Orleans LA", "Port of New Orleans", "NOLA"]},
  {"id": "new-york-us", "displayName": "New York City, New York", "latitude": 40.6892, "longitude": -74.0445, "country": "United States", "aliases": ["New York", "New York City", "NYC", "Manhattan Cruise Terminal", "Cape Liberty", "Bayonne"]},
  {"id": "san-juan-pr", "displayName": "San Juan, Puerto Rico", "latitude": 18.4655, "longitude": -66.1057, "country": "Puerto Rico", "aliases": ["San Juan", "San Juan PR", "Puerto Rico"]},
  {"id": "honolulu-us", "displayName": "Honolulu, Hawaii", "latitude": 21.3069, "longitude": -157.8583, "country": "United States", "aliases": ["Honolulu", "Honolulu HI", "Oahu"]},
  {"id": "seattle-us", "displayName": "Seattle, Washington", "latitude": 47.6062, "longitude": -122.3321, "country": "United States", "aliases": ["Seattle", "Seattle WA", "Port of Seattle"]},
  {"id": "los-angeles-us", "displayName": "Los Angeles, California", "latitude": 33.7405, "longitude": -118.2730, "country": "United States", "aliases": ["Los Angeles", "LA", "San Pedro", "Long Beach", "Port of Los Angeles"]},
  {"id": "san-francisco-us", "displayName": "San Francisco, California", "latitude": 37.7749, "longitude": -122.4194, "country": "United States", "aliases": ["San Francisco", "San Francisco CA", "Port of San Francisco"]},
  {"id": "charleston-us", "displayName": "Charleston, South Carolina", "latitude": 32.7765, "longitude": -79.9311, "country": "United States", "aliases": ["Charleston", "Charleston SC", "Port of Charleston"]},
  {"id": "baltimore-us", "displayName": "Baltimore, Maryland", "latitude": 39.2854, "longitude": -76.6076, "country": "United States", "aliases": ["Baltimore", "Baltimore MD", "Port of Baltimore"]},
  {"id": "boston-us", "displayName": "Boston, Massachusetts", "latitude": 42.3601, "longitude": -71.0589, "country": "United States", "aliases": ["Boston", "Boston MA"]},
  {"id": "san-diego-us", "displayName": "San Diego, California", "latitude": 32.7157, "longitude": -117.1611, "country": "United States", "aliases": ["San Diego", "San Diego CA"]},
  {"id": "key-west-us", "displayName": "Key West, Florida", "latitude": 24.5551, "longitude": -81.7800, "country": "United States", "aliases": ["Key West", "Key West FL"]},
  {"id": "norfolk-us", "displayName": "Norfolk, Virginia", "latitude": 36.8508, "longitude": -76.2859, "country": "United States", "aliases": ["Norfolk", "Norfolk VA"]},
  {"id": "mobile-us", "displayName": "Mobile, Alabama", "latitude": 30.6954, "longitude": -88.0399, "country": "United States", "aliases": ["Mobile", "Mobile AL"]},
  {"id": "jacksonville-us", "displayName": "Jacksonville, Florida", "latitude": 30.3322, "longitude": -81.6557, "country": "United States", "aliases": ["Jacksonville", "Jacksonville FL"]},
  {"id": "savannah-us", "displayName": "Savannah, Georgia", "latitude": 32.0809, "longitude": -81.0912, "country": "United States", "aliases": ["Savannah", "Savannah GA"]},
  {"id": "portland-me-us", "displayName": "Portland, Maine", "latitude": 43.6591, "longitude": -70.2568, "country": "United States", "aliases": ["Portland Maine", "Portland ME"]},
  {"id": "bar-harbor-us", "displayName": "Bar Harbor, Maine", "latitude": 44.3876, "longitude": -68.2039, "country": "United States", "aliases": ["Bar Harbor", "Acadia"]},
  {"id": "newport-us", "displayName": "Newport, Rhode Island", "latitude": 41.4901, "longitude": -71.3128, "country": "United States", "aliases": ["Newport", "Newport RI"]},

  {"id": "nassau-bs", "displayName": "Nassau, Bahamas", "latitude": 25.0480, "longitude": -77.3554, "country": "Bahamas", "aliases": ["Nassau", "Nassau Bahamas", "New Providence"]},
  {"id": "cococay-bs", "displayName": "CocoCay, Bahamas", "latitude": 25.7824, "longitude": -77.9208, "country": "Bahamas", "aliases": ["CocoCay", "Coco Cay", "Perfect Day at CocoCay", "Little Stirrup Cay"]},
  {"id": "freeport-bs", "displayName": "Freeport, Bahamas", "latitude": 26.5285, "longitude": -78.6967, "country": "Bahamas", "aliases": ["Freeport", "Freeport Bahamas", "Grand Bahama", "Grand Bahama Island"]},
  {"id": "half-moon-cay-bs", "displayName": "Half Moon Cay, Bahamas", "latitude": 24.0800, "longitude": -75.8800, "country": "Bahamas", "aliases": ["Half Moon Cay", "Half Moon Cay Bahamas", "Little San Salvador"]},
  {"id": "castaway-cay-bs", "displayName": "Castaway Cay, Bahamas", "latitude": 26.0856, "longitude": -77.5551, "country": "Bahamas", "aliases": ["Castaway Cay", "Disney Castaway Cay"]},
  {"id": "ocean-cay-bs", "displayName": "Ocean Cay, Bahamas", "latitude": 25.3661, "longitude": -79.2490, "country": "Bahamas", "aliases": ["Ocean Cay", "Ocean Cay MSC"]},
  {"id": "great-stirrup-cay-bs", "displayName": "Great Stirrup Cay, Bahamas", "latitude": 25.8308, "longitude": -77.9103, "country": "Bahamas", "aliases": ["Great Stirrup Cay", "Stirrup Cay"]},
  {"id": "princess-cays-bs", "displayName": "Princess Cays, Bahamas", "latitude": 24.1000, "longitude": -76.3200, "country": "Bahamas", "aliases": ["Princess Cays"]},
  {"id": "eleuthera-bs", "displayName": "Eleuthera, Bahamas", "latitude": 25.0362, "longitude": -76.1459, "country": "Bahamas", "aliases": ["Eleuthera"]},
  {"id": "bimini-bs", "displayName": "Bimini, Bahamas", "latitude": 25.7267, "longitude": -79.2694, "country": "Bahamas", "aliases": ["Bimini"]},

  {"id": "cozumel-mx", "displayName": "Cozumel, Mexico", "latitude": 20.4229, "longitude": -86.9223, "country": "Mexico", "aliases": ["Cozumel", "Isla de Cozumel", "San Miguel de Cozumel"]},
  {"id": "costa-maya-mx", "displayName": "Costa Maya, Mexico", "latitude": 18.7267, "longitude": -87.6950, "country": "Mexico", "aliases": ["Costa Maya", "Mahahual", "Majahual"]},
  {"id": "progreso-mx", "displayName": "Progreso, Mexico", "latitude": 21.2812, "longitude": -89.6651, "country": "Mexico", "aliases": ["Progreso", "Progreso (Merida)", "Progreso Yucatan"]},
  {"id": "cabo-san-lucas-mx", "displayName": "Cabo San Lucas, Mexico", "latitude": 22.8905, "longitude": -109.9167, "country": "Mexico", "aliases": ["Cabo San Lucas", "Cabo", "Los Cabos", "CSL"]},
  {"id": "puerto-vallarta-mx", "displayName": "Puerto Vallarta, Mexico", "latitude": 20.6534, "longitude": -105.2253, "country": "Mexico", "aliases": ["Puerto Vallarta", "Vallarta", "PVR"]},
  {"id": "ensenada-mx", "displayName": "Ensenada, Mexico", "latitude": 31.8667, "longitude": -116.5964, "country": "Mexico", "aliases": ["Ensenada"]},
  {"id": "mazatlan-mx", "displayName": "Mazatlan, Mexico", "latitude": 23.2494, "longitude": -106.4111, "country": "Mexico", "aliases": ["Mazatlan", "Mazatlán"]},
  {"id": "huatulco-mx", "displayName": "Huatulco, Mexico", "latitude": 15.7690, "longitude": -96.1340, "country": "Mexico", "aliases": ["Huatulco"]},
  {"id": "ixtapa-mx", "displayName": "Ixtapa (Zihuatanejo), Mexico", "latitude": 17.6367, "longitude": -101.5528, "country": "Mexico", "aliases": ["Ixtapa", "Zihuatanejo", "Ixtapa/Zihuatanejo"]},
  {"id": "manzanillo-mx", "displayName": "Manzanillo, Mexico", "latitude": 19.0514, "longitude": -104.3188, "country": "Mexico", "aliases": ["Manzanillo"]},

  {"id": "grand-cayman-ky", "displayName": "Grand Cayman, Cayman Islands", "latitude": 19.2869, "longitude": -81.3674, "country": "Cayman Islands", "aliases": ["Grand Cayman", "George Town Grand Cayman", "Georgetown Cayman", "Cayman Islands"]},
  {"id": "jamaica-falmouth-jm", "displayName": "Falmouth, Jamaica", "latitude": 18.4898, "longitude": -77.6549, "country": "Jamaica", "aliases": ["Falmouth", "Falmouth Jamaica"]},
  {"id": "jamaica-ocho-rios-jm", "displayName": "Ocho Rios, Jamaica", "latitude": 18.4074, "longitude": -77.1050, "country": "Jamaica", "aliases": ["Ocho Rios", "Ocho Rios Jamaica"]},
  {"id": "jamaica-montego-bay-jm", "displayName": "Montego Bay, Jamaica", "latitude": 18.4762, "longitude": -77.8939, "country": "Jamaica", "aliases": ["Montego Bay", "Montego Bay Jamaica", "MoBay"]},
  {"id": "st-thomas-vi", "displayName": "St. Thomas, U.S. Virgin Islands", "latitude": 18.3358, "longitude": -64.9307, "country": "U.S. Virgin Islands", "aliases": ["St Thomas", "St. Thomas", "Saint Thomas", "Charlotte Amalie", "USVI"]},
  {"id": "st-maarten-sx", "displayName": "St. Maarten", "latitude": 18.0425, "longitude": -63.0548, "country": "Sint Maarten", "aliases": ["St Maarten", "St. Maarten", "Saint Maarten", "St Martin", "Sint Maarten", "Philipsburg"]},
  {"id": "st-croix-vi", "displayName": "St. Croix, U.S. Virgin Islands", "latitude": 17.7470, "longitude": -64.7031, "country": "U.S. Virgin Islands", "aliases": ["St Croix", "St. Croix", "Saint Croix", "Frederiksted"]},
  {"id": "aruba-aw", "displayName": "Oranjestad, Aruba", "latitude": 12.5092, "longitude": -70.0086, "country": "Aruba", "aliases": ["Aruba", "Oranjestad"]},
  {"id": "curacao-cw", "displayName": "Willemstad, Curacao", "latitude": 12.1696, "longitude": -68.9900, "country": "Curacao", "aliases": ["Curacao", "Curaçao", "Willemstad"]},
  {"id": "bonaire-bq", "displayName": "Kralendijk, Bonaire", "latitude": 12.1443, "longitude": -68.2655, "country": "Bonaire", "aliases": ["Bonaire", "Kralendijk"]},
  {"id": "barbados-bb", "displayName": "Bridgetown, Barbados", "latitude": 13.1132, "longitude": -59.5988, "country": "Barbados", "aliases": ["Barbados", "Bridgetown"]},
  {"id": "st-lucia-lc", "displayName": "Castries, St. Lucia", "latitude": 14.0101, "longitude": -60.9875, "country": "Saint Lucia", "aliases": ["St Lucia", "St. Lucia", "Saint Lucia", "Castries"]},
  {"id": "antigua-ag", "displayName": "St. John's, Antigua", "latitude": 17.1274, "longitude": -61.8468, "country": "Antigua and Barbuda", "aliases": ["Antigua", "St Johns Antigua", "St. John's Antigua"]},
  {"id": "st-kitts-kn", "displayName": "Basseterre, St. Kitts", "latitude": 17.2948, "longitude": -62.7261, "country": "Saint Kitts and Nevis", "aliases": ["St Kitts", "St. Kitts", "Saint Kitts", "Basseterre"]},
  {"id": "tortola-vg", "displayName": "Tortola, British Virgin Islands", "latitude": 18.4207, "longitude": -64.6399, "country": "British Virgin Islands", "aliases": ["Tortola", "BVI", "British Virgin Islands", "Road Town"]},
  {"id": "dominica-dm", "displayName": "Roseau, Dominica", "latitude": 15.3010, "longitude": -61.3872, "country": "Dominica", "aliases": ["Dominica", "Roseau"]},
  {"id": "grenada-gd", "displayName": "St. George's, Grenada", "latitude": 12.0564, "longitude": -61.7485, "country": "Grenada", "aliases": ["Grenada", "St Georges Grenada", "St. George's"]},
  {"id": "trinidad-tt", "displayName": "Port of Spain, Trinidad", "latitude": 10.6596, "longitude": -61.5086, "country": "Trinidad and Tobago", "aliases": ["Trinidad", "Port of Spain"]},
  {"id": "tobago-tt", "displayName": "Scarborough, Tobago", "latitude": 11.1812, "longitude": -60.7357, "country": "Trinidad and Tobago", "aliases": ["Tobago", "Scarborough"]},
  {"id": "martinique-mq", "displayName": "Fort-de-France, Martinique", "latitude": 14.6161, "longitude": -61.0588, "country": "Martinique", "aliases": ["Martinique", "Fort-de-France"]},
  {"id": "guadeloupe-gp", "displayName": "Pointe-a-Pitre, Guadeloupe", "latitude": 16.2411, "longitude": -61.5339, "country": "Guadeloupe", "aliases": ["Guadeloupe", "Pointe-a-Pitre", "Pointe-à-Pitre"]},
  {"id": "grand-turk-tc", "displayName": "Grand Turk, Turks and Caicos", "latitude": 21.4612, "longitude": -71.1367, "country": "Turks and Caicos", "aliases": ["Grand Turk", "Turks and Caicos"]},
  {"id": "amber-cove-do", "displayName": "Amber Cove, Dominican Republic", "latitude": 19.7970, "longitude": -70.7171, "country": "Dominican Republic", "aliases": ["Amber Cove", "Puerto Plata"]},
  {"id": "la-romana-do", "displayName": "La Romana, Dominican Republic", "latitude": 18.4274, "longitude": -68.9728, "country": "Dominican Republic", "aliases": ["La Romana"]},
  {"id": "santo-domingo-do", "displayName": "Santo Domingo, Dominican Republic", "latitude": 18.4861, "longitude": -69.9312, "country": "Dominican Republic", "aliases": ["Santo Domingo"]},
  {"id": "labadee-ht", "displayName": "Labadee, Haiti", "latitude": 19.7817, "longitude": -72.2500, "country": "Haiti", "aliases": ["Labadee", "Labadie"]},
  {"id": "havana-cu", "displayName": "Havana, Cuba", "latitude": 23.1136, "longitude": -82.3666, "country": "Cuba", "aliases": ["Havana", "La Habana"]},
  {"id": "st-vincent-vc", "displayName": "Kingstown, St. Vincent", "latitude": 13.1587, "longitude": -61.2248, "country": "Saint Vincent and the Grenadines", "aliases": ["St Vincent", "St. Vincent", "Kingstown"]},
  {"id": "iles-des-saintes-gp", "displayName": "Iles des Saintes, Guadeloupe", "latitude": 15.8667, "longitude": -61.6167, "country": "Guadeloupe", "aliases": ["Iles des Saintes", "Les Saintes"]},
  {"id": "virgin-gorda-vg", "displayName": "Virgin Gorda, British Virgin Islands", "latitude": 18.4486, "longitude": -64.4221, "country": "British Virgin Islands", "aliases": ["Virgin Gorda"]},
  {"id": "jost-van-dyke-vg", "displayName": "Jost Van Dyke, British Virgin Islands", "latitude": 18.4431, "longitude": -64.7528, "country": "British Virgin Islands", "aliases": ["Jost Van Dyke"]},
  {"id": "nevis-kn", "displayName": "Charlestown, Nevis", "latitude": 17.1369, "longitude": -62.6242, "country": "Saint Kitts and Nevis", "aliases": ["Nevis", "Charlestown"]},

  {"id": "roatan-hn", "displayName": "Roatan, Honduras", "latitude": 16.3200, "longitude": -86.5234, "country": "Honduras", "aliases": ["Roatan", "Roatán", "Bay Islands"]},
  {"id": "belize-bz", "displayName": "Belize City, Belize", "latitude": 17.4989, "longitude": -88.1886, "country": "Belize", "aliases": ["Belize", "Belize City"]},
  {"id": "harvest-caye-bz", "displayName": "Harvest Caye, Belize", "latitude": 16.4769, "longitude": -88.4292, "country": "Belize", "aliases": ["Harvest Caye", "Harvest Cay"]},
  {"id": "cartagena-co", "displayName": "Cartagena, Colombia", "latitude": 10.3910, "longitude": -75.5364, "country": "Colombia", "aliases": ["Cartagena", "Cartagena Colombia"]},
  {"id": "colon-pa", "displayName": "Colon, Panama", "latitude": 9.3547, "longitude": -79.9017, "country": "Panama", "aliases": ["Colon", "Colón", "Panama Canal", "Cristobal"]},
  {"id": "fuerte-amador-pa", "displayName": "Fuerte Amador, Panama", "latitude": 8.9242, "longitude": -79.5330, "country": "Panama", "aliases": ["Fuerte Amador", "Panama City", "Amador"]},
  {"id": "limon-cr", "displayName": "Puerto Limon, Costa Rica", "latitude": 9.9907, "longitude": -83.0359, "country": "Costa Rica", "aliases": ["Puerto Limon", "Limon", "Costa Rica"]},
  {"id": "puntarenas-cr", "displayName": "Puntarenas, Costa Rica", "latitude": 9.9762, "longitude": -84.8382, "country": "Costa Rica", "aliases": ["Puntarenas"]},
  {"id": "puerto-chiapas-mx", "displayName": "Puerto Chiapas, Mexico", "latitude": 14.7000, "longitude": -92.4167, "country": "Mexico", "aliases": ["Puerto Chiapas"]},
  {"id": "santo-tomas-gt", "displayName": "Santo Tomas de Castilla, Guatemala", "latitude": 15.6930, "longitude": -88.6183, "country": "Guatemala", "aliases": ["Santo Tomas", "Santo Tomas de Castilla", "Guatemala"]},
  {"id": "bermuda-bm", "displayName": "King's Wharf, Bermuda", "latitude": 32.3293, "longitude": -64.8350, "country": "Bermuda", "aliases": ["Bermuda", "Kings Wharf", "King's Wharf", "Royal Naval Dockyard", "Hamilton Bermuda"]},

  {"id": "juneau-us", "displayName": "Juneau, Alaska", "latitude": 58.3005, "longitude": -134.4197, "country": "United States", "aliases": ["Juneau", "Juneau AK", "Juneau Alaska"]},
  {"id": "skagway-us", "displayName": "Skagway, Alaska", "latitude": 59.4583, "longitude": -135.3139, "country": "United States", "aliases": ["Skagway", "Skagway AK", "Skagway Alaska"]},
  {"id": "ketchikan-us", "displayName": "Ketchikan, Alaska", "latitude": 55.3422, "longitude": -131.6461, "country": "United States", "aliases": ["Ketchikan", "Ketchikan AK", "Ketchikan Alaska"]},
  {"id": "sitka-us", "displayName": "Sitka, Alaska", "latitude": 57.0531, "longitude": -135.3300, "country": "United States", "aliases": ["Sitka", "Sitka AK", "Sitka Alaska"]},
  {"id": "icy-strait-us", "displayName": "Icy Strait Point, Alaska", "latitude": 58.1214, "longitude": -135.4376, "country": "United States", "aliases": ["Icy Strait Point", "Icy Strait", "Hoonah"]},
  {"id": "hubbard-glacier-us", "displayName": "Hubbard Glacier, Alaska", "latitude": 60.0192, "longitude": -139.4550, "country": "United States", "aliases": ["Hubbard Glacier"]},
  {"id": "glacier-bay-us", "displayName": "Glacier Bay, Alaska", "latitude": 58.6658, "longitude": -136.0500, "country": "United States", "aliases": ["Glacier Bay"]},
  {"id": "seward-us", "displayName": "Seward, Alaska", "latitude": 60.1042, "longitude": -149.4422, "country": "United States", "aliases": ["Seward", "Seward AK"]},
  {"id": "whittier-us", "displayName": "Whittier, Alaska", "latitude": 60.7722, "longitude": -148.6839, "country": "United States", "aliases": ["Whittier", "Whittier AK"]},
  {"id": "wrangell-us", "displayName": "Wrangell, Alaska", "latitude": 56.4708, "longitude": -132.3767, "country": "United States", "aliases": ["Wrangell"]},
  {"id": "valdez-us", "displayName": "Valdez, Alaska", "latitude": 61.1309, "longitude": -146.3483, "country": "United States", "aliases": ["Valdez"]},
  {"id": "kodiak-us", "displayName": "Kodiak, Alaska", "latitude": 57.7900, "longitude": -152.4072, "country": "United States", "aliases": ["Kodiak"]},
  {"id": "victoria-ca", "displayName": "Victoria, British Columbia", "latitude": 48.4284, "longitude": -123.3656, "country": "Canada", "aliases": ["Victoria", "Victoria BC", "Victoria Canada"]},
  {"id": "vancouver-ca", "displayName": "Vancouver, British Columbia", "latitude": 49.2827, "longitude": -123.1207, "country": "Canada", "aliases": ["Vancouver", "Vancouver BC", "Vancouver Canada"]},
  {"id": "prince-rupert-ca", "displayName": "Prince Rupert, British Columbia", "latitude": 54.3150, "longitude": -130.3208, "country": "Canada", "aliases": ["Prince Rupert"]},
  {"id": "nanaimo-ca", "displayName": "Nanaimo, British Columbia", "latitude": 49.1659, "longitude": -123.9401, "country": "Canada", "aliases": ["Nanaimo"]},

  {"id": "halifax-ca", "displayName": "Halifax, Nova Scotia", "latitude": 44.6488, "longitude": -63.5752, "country": "Canada", "aliases": ["Halifax", "Halifax NS"]},
  {"id": "sydney-ca", "displayName": "Sydney, Nova Scotia", "latitude": 46.1351, "longitude": -60.1831, "country": "Canada", "aliases": ["Sydney Nova Scotia", "Sydney NS", "Cape Breton"]},
  {"id": "quebec-city-ca", "displayName": "Quebec City, Quebec", "latitude": 46.8139, "longitude": -71.2080, "country": "Canada", "aliases": ["Quebec City", "Quebec"]},
  {"id": "montreal-ca", "displayName": "Montreal, Quebec", "latitude": 45.5017, "longitude": -73.5673, "country": "Canada", "aliases": ["Montreal", "Montréal"]},
  {"id": "saint-john-ca", "displayName": "Saint John, New Brunswick", "latitude": 45.2733, "longitude": -66.0633, "country": "Canada", "aliases": ["Saint John", "Saint John NB"]},
  {"id": "charlottetown-ca", "displayName": "Charlottetown, PEI", "latitude": 46.2382, "longitude": -63.1311, "country": "Canada", "aliases": ["Charlottetown", "PEI", "Prince Edward Island"]},
  {"id": "corner-brook-ca", "displayName": "Corner Brook, Newfoundland", "latitude": 48.9500, "longitude": -57.9500, "country": "Canada", "aliases": ["Corner Brook"]},
  {"id": "st-johns-ca", "displayName": "St. John's, Newfoundland", "latitude": 47.5615, "longitude": -52.7126, "country": "Canada", "aliases": ["St Johns Newfoundland", "St. John's NL"]},
  {"id": "saguenay-ca", "displayName": "Saguenay, Quebec", "latitude": 48.4279, "longitude": -71.0686, "country": "Canada", "aliases": ["Saguenay"]},

  {"id": "southampton-gb", "displayName": "Southampton, United Kingdom", "latitude": 50.9097, "longitude": -1.4044, "country": "United Kingdom", "aliases": ["Southampton", "Southampton England", "Southampton UK", "Port of Southampton"]},
  {"id": "newcastle-gb", "displayName": "Newcastle (Tyne), United Kingdom", "latitude": 54.9783, "longitude": -1.6174, "country": "United Kingdom", "aliases": ["Newcastle", "Newcastle upon Tyne", "Newcastle (Tyne)", "Port of Tyne", "Newcastle England", "Newcastle UK"]},
  {"id": "edinburgh-gb", "displayName": "Edinburgh (Leith), United Kingdom", "latitude": 55.9533, "longitude": -3.1883, "country": "United Kingdom", "aliases": ["Edinburgh", "Leith", "Edinburgh (Leith)", "South Queensferry", "Newhaven Edinburgh"]},
  {"id": "liverpool-gb", "displayName": "Liverpool, United Kingdom", "latitude": 53.4084, "longitude": -2.9916, "country": "United Kingdom", "aliases": ["Liverpool", "Liverpool England", "Liverpool UK"]},
  {"id": "dover-gb", "displayName": "Dover, United Kingdom", "latitude": 51.1279, "longitude": 1.3134, "country": "United Kingdom", "aliases": ["Dover", "Dover England", "Port of Dover"]},
  {"id": "kirkwall-gb", "displayName": "Kirkwall, Orkney Islands, Scotland", "latitude": 58.9809, "longitude": -2.9605, "country": "United Kingdom", "aliases": ["Kirkwall", "Orkney", "Orkney Islands", "Orkney Isles"]},
  {"id": "lerwick-gb", "displayName": "Lerwick, Shetland Islands, Scotland", "latitude": 60.1551, "longitude": -1.1451, "country": "United Kingdom", "aliases": ["Lerwick", "Shetland", "Shetland Islands"]},
  {"id": "invergordon-gb", "displayName": "Invergordon, Scotland", "latitude": 57.6868, "longitude": -4.1661, "country": "United Kingdom", "aliases": ["Invergordon"]},
  {"id": "greenock-gb", "displayName": "Greenock (Glasgow), Scotland", "latitude": 55.9496, "longitude": -4.7640, "country": "United Kingdom", "aliases": ["Greenock", "Glasgow", "Greenock (Glasgow)"]},
  {"id": "portland-gb", "displayName": "Portland, United Kingdom", "latitude": 50.5714, "longitude": -2.4480, "country": "United Kingdom", "aliases": ["Portland UK", "Portland Dorset"]},
  {"id": "falmouth-gb", "displayName": "Falmouth, United Kingdom", "latitude": 50.1526, "longitude": -5.0711, "country": "United Kingdom", "aliases": ["Falmouth UK", "Falmouth England", "Falmouth Cornwall"]},
  {"id": "belfast-gb", "displayName": "Belfast, Northern Ireland", "latitude": 54.5973, "longitude": -5.9301, "country": "United Kingdom", "aliases": ["Belfast"]},
  {"id": "cork-ie", "displayName": "Cork (Cobh), Ireland", "latitude": 51.8503, "longitude": -8.2943, "country": "Ireland", "aliases": ["Cork", "Cobh", "Queenstown", "Cork (Cobh)"]},
  {"id": "dublin-ie", "displayName": "Dublin, Ireland", "latitude": 53.3498, "longitude": -6.2603, "country": "Ireland", "aliases": ["Dublin"]},
  {"id": "waterford-ie", "displayName": "Waterford, Ireland", "latitude": 52.2593, "longitude": -7.1101, "country": "Ireland", "aliases": ["Waterford"]},
  {"id": "galway-ie", "displayName": "Galway, Ireland", "latitude": 53.2707, "longitude": -9.0568, "country": "Ireland", "aliases": ["Galway"]},
  {"id": "stornoway-gb", "displayName": "Stornoway, Isle of Lewis, Scotland", "latitude": 58.2088, "longitude": -6.3874, "country": "United Kingdom", "aliases": ["Stornoway", "Isle of Lewis", "Lewis"]},
  {"id": "portree-gb", "displayName": "Portree, Isle of Skye, Scotland", "latitude": 57.4125, "longitude": -6.1953, "country": "United Kingdom", "aliases": ["Portree", "Isle of Skye", "Skye"]},
  {"id": "isle-of-mull-gb", "displayName": "Tobermory, Isle of Mull, Scotland", "latitude": 56.6228, "longitude": -6.0656, "country": "United Kingdom", "aliases": ["Tobermory", "Isle of Mull", "Mull"]},
  {"id": "guernsey-gb", "displayName": "St. Peter Port, Guernsey", "latitude": 49.4555, "longitude": -2.5368, "country": "United Kingdom", "aliases": ["Guernsey", "St Peter Port"]},
  {"id": "jersey-gb", "displayName": "St. Helier, Jersey", "latitude": 49.1880, "longitude": -2.1014, "country": "United Kingdom", "aliases": ["Jersey", "St Helier"]},
  {"id": "tilbury-gb", "displayName": "Tilbury (London), United Kingdom", "latitude": 51.4606, "longitude": 0.3553, "country": "United Kingdom", "aliases": ["Tilbury", "London Tilbury", "London"]},
  {"id": "harwich-gb", "displayName": "Harwich, United Kingdom", "latitude": 51.9459, "longitude": 1.2889, "country": "United Kingdom", "aliases": ["Harwich"]},
  {"id": "rosyth-gb", "displayName": "Rosyth (Edinburgh), Scotland", "latitude": 56.0336, "longitude": -3.4370, "country": "United Kingdom", "aliases": ["Rosyth"]},
  {"id": "scrabster-gb", "displayName": "Scrabster, Scotland", "latitude": 58.6122, "longitude": -3.5506, "country": "United Kingdom", "aliases": ["Scrabster", "Thurso"]},

  {"id": "barcelona-es", "displayName": "Barcelona, Spain", "latitude": 41.3851, "longitude": 2.1734, "country": "Spain", "aliases": ["Barcelona"]},
  {"id": "palma-es", "displayName": "Palma de Mallorca, Spain", "latitude": 39.5696, "longitude": 2.6502, "country": "Spain", "aliases": ["Palma", "Palma de Mallorca", "Mallorca", "Majorca"]},
  {"id": "malaga-es", "displayName": "Malaga, Spain", "latitude": 36.7213, "longitude": -4.4214, "country": "Spain", "aliases": ["Malaga", "Málaga"]},
  {"id": "cadiz-es", "displayName": "Cadiz, Spain", "latitude": 36.5298, "longitude": -6.2926, "country": "Spain", "aliases": ["Cadiz", "Cádiz"]},
  {"id": "vigo-es", "displayName": "Vigo, Spain", "latitude": 42.2406, "longitude": -8.7207, "country": "Spain", "aliases": ["Vigo"]},
  {"id": "alicante-es", "displayName": "Alicante, Spain", "latitude": 38.3452, "longitude": -0.4810, "country": "Spain", "aliases": ["Alicante"]},
  {"id": "ibiza-es", "displayName": "Ibiza, Spain", "latitude": 38.9067, "longitude": 1.4206, "country": "Spain", "aliases": ["Ibiza", "Eivissa"]},
  {"id": "cartagena-es", "displayName": "Cartagena, Spain", "latitude": 37.6057, "longitude": -0.9862, "country": "Spain", "aliases": ["Cartagena Spain"]},
  {"id": "valencia-es", "displayName": "Valencia, Spain", "latitude": 39.4699, "longitude": -0.3763, "country": "Spain", "aliases": ["Valencia"]},
  {"id": "bilbao-es", "displayName": "Bilbao, Spain", "latitude": 43.2630, "longitude": -2.9350, "country": "Spain", "aliases": ["Bilbao"]},
  {"id": "la-coruna-es", "displayName": "La Coruna, Spain", "latitude": 43.3623, "longitude": -8.4115, "country": "Spain", "aliases": ["La Coruna", "A Coruña", "La Coruña"]},
  {"id": "tenerife-es", "displayName": "Tenerife, Canary Islands", "latitude": 28.4636, "longitude": -16.2518, "country": "Spain", "aliases": ["Tenerife", "Santa Cruz de Tenerife", "Canary Islands"]},
  {"id": "lanzarote-es", "displayName": "Lanzarote, Canary Islands", "latitude": 28.9630, "longitude": -13.5477, "country": "Spain", "aliases": ["Lanzarote", "Arrecife"]},
  {"id": "las-palmas-es", "displayName": "Las Palmas, Gran Canaria", "latitude": 28.1235, "longitude": -15.4363, "country": "Spain", "aliases": ["Las Palmas", "Gran Canaria", "Grand Canary"]},
  {"id": "fuerteventura-es", "displayName": "Fuerteventura, Canary Islands", "latitude": 28.3587, "longitude": -14.0538, "country": "Spain", "aliases": ["Fuerteventura", "Puerto del Rosario"]},
  {"id": "la-palma-es", "displayName": "La Palma, Canary Islands", "latitude": 28.6835, "longitude": -17.7642, "country": "Spain", "aliases": ["La Palma", "Santa Cruz de La Palma"]},
  {"id": "gibraltar-gi", "displayName": "Gibraltar", "latitude": 36.1408, "longitude": -5.3536, "country": "Gibraltar", "aliases": ["Gibraltar"]},

  {"id": "civitavecchia-it", "displayName": "Civitavecchia (Rome), Italy", "latitude": 42.0930, "longitude": 11.7966, "country": "Italy", "aliases": ["Civitavecchia", "Rome", "Civitavecchia (Rome)", "Port of Rome"]},
  {"id": "naples-it", "displayName": "Naples, Italy", "latitude": 40.8518, "longitude": 14.2681, "country": "Italy", "aliases": ["Naples", "Napoli"]},
  {"id": "venice-it", "displayName": "Venice, Italy", "latitude": 45.4408, "longitude": 12.3155, "country": "Italy", "aliases": ["Venice", "Venezia"]},
  {"id": "genoa-it", "displayName": "Genoa, Italy", "latitude": 44.4056, "longitude": 8.9463, "country": "Italy", "aliases": ["Genoa", "Genova"]},
  {"id": "livorno-it", "displayName": "Livorno (Florence), Italy", "latitude": 43.5485, "longitude": 10.3106, "country": "Italy", "aliases": ["Livorno", "Livorno (Florence)", "Florence", "Leghorn"]},
  {"id": "messina-it", "displayName": "Messina, Italy", "latitude": 38.1938, "longitude": 15.5540, "country": "Italy", "aliases": ["Messina", "Messina Sicily"]},
  {"id": "la-spezia-it", "displayName": "La Spezia (Cinque Terre), Italy", "latitude": 44.1024, "longitude": 9.8241, "country": "Italy", "aliases": ["La Spezia", "Cinque Terre", "La Spezia (Cinque Terre)"]},
  {"id": "ravenna-it", "displayName": "Ravenna, Italy", "latitude": 44.4184, "longitude": 12.2035, "country": "Italy", "aliases": ["Ravenna"]},
  {"id": "bari-it", "displayName": "Bari, Italy", "latitude": 41.1171, "longitude": 16.8719, "country": "Italy", "aliases": ["Bari"]},
  {"id": "catania-it", "displayName": "Catania, Sicily", "latitude": 37.5079, "longitude": 15.0830, "country": "Italy", "aliases": ["Catania", "Catania Sicily"]},
  {"id": "palermo-it", "displayName": "Palermo, Sicily", "latitude": 38.1157, "longitude": 13.3615, "country": "Italy", "aliases": ["Palermo", "Palermo Sicily"]},
  {"id": "cagliari-it", "displayName": "Cagliari, Sardinia", "latitude": 39.2238, "longitude": 9.1217, "country": "Italy", "aliases": ["Cagliari", "Sardinia"]},
  {"id": "amalfi-it", "displayName": "Amalfi Coast (Salerno), Italy", "latitude": 40.6824, "longitude": 14.7681, "country": "Italy", "aliases": ["Amalfi", "Salerno", "Amalfi Coast"]},
  {"id": "trieste-it", "displayName": "Trieste, Italy", "latitude": 45.6495, "longitude": 13.7768, "country": "Italy", "aliases": ["Trieste"]},
  {"id": "olbia-it", "displayName": "Olbia, Sardinia", "latitude": 40.9243, "longitude": 9.4961, "country": "Italy", "aliases": ["Olbia"]},
  {"id": "ancona-it", "displayName": "Ancona, Italy", "latitude": 43.6158, "longitude": 13.5185, "country": "Italy", "aliases": ["Ancona"]},
  {"id": "savona-it", "displayName": "Savona, Italy", "latitude": 44.3092, "longitude": 8.4772, "country": "Italy", "aliases": ["Savona"]},
  {"id": "sorrento-it", "displayName": "Sorrento, Italy", "latitude": 40.6263, "longitude": 14.3758, "country": "Italy", "aliases": ["Sorrento"]},
  {"id": "taormina-it", "displayName": "Taormina (Giardini Naxos), Sicily", "latitude": 37.8515, "longitude": 15.2866, "country": "Italy", "aliases": ["Taormina", "Giardini Naxos"]},
  {"id": "siracusa-it", "displayName": "Siracusa, Sicily", "latitude": 37.0755, "longitude": 15.2866, "country": "Italy", "aliases": ["Siracusa", "Syracuse"]},
  {"id": "portofino-it", "displayName": "Portofino, Italy", "latitude": 44.3035, "longitude": 9.2092, "country": "Italy", "aliases": ["Portofino"]},

  {"id": "marseille-fr", "displayName": "Marseille, France", "latitude": 43.2965, "longitude": 5.3698, "country": "France", "aliases": ["Marseille", "Marseilles"]},
  {"id": "le-havre-fr", "displayName": "Le Havre (Paris), France", "latitude": 49.4944, "longitude": 0.1079, "country": "France", "aliases": ["Le Havre", "Le Havre (Paris)", "Paris"]},
  {"id": "cannes-fr", "displayName": "Cannes, France", "latitude": 43.5528, "longitude": 7.0174, "country": "France", "aliases": ["Cannes"]},
  {"id": "nice-fr", "displayName": "Nice (Villefranche), France", "latitude": 43.6961, "longitude": 7.3082, "country": "France", "aliases": ["Nice", "Villefranche", "Villefranche-sur-Mer", "Nice (Villefranche)"]},
  {"id": "ajaccio-fr", "displayName": "Ajaccio, Corsica", "latitude": 41.9192, "longitude": 8.7386, "country": "France", "aliases": ["Ajaccio", "Corsica"]},
  {"id": "bordeaux-fr", "displayName": "Bordeaux, France", "latitude": 44.8378, "longitude": -0.5792, "country": "France", "aliases": ["Bordeaux"]},
  {"id": "bonifacio-fr", "displayName": "Bonifacio, Corsica", "latitude": 41.3871, "longitude": 9.1594, "country": "France", "aliases": ["Bonifacio"]},
  {"id": "toulon-fr", "displayName": "Toulon, France", "latitude": 43.1242, "longitude": 5.9280, "country": "France", "aliases": ["Toulon"]},
  {"id": "cherbourg-fr", "displayName": "Cherbourg, France", "latitude": 49.6337, "longitude": -1.6222, "country": "France", "aliases": ["Cherbourg"]},
  {"id": "honfleur-fr", "displayName": "Honfleur, France", "latitude": 49.4188, "longitude": 0.2333, "country": "France", "aliases": ["Honfleur"]},
  {"id": "saint-malo-fr", "displayName": "Saint-Malo, France", "latitude": 48.6493, "longitude": -2.0009, "country": "France", "aliases": ["Saint-Malo", "St Malo"]},
  {"id": "monte-carlo-mc", "displayName": "Monte Carlo, Monaco", "latitude": 43.7384, "longitude": 7.4246, "country": "Monaco", "aliases": ["Monte Carlo", "Monaco"]},

  {"id": "lisbon-pt", "displayName": "Lisbon, Portugal", "latitude": 38.7223, "longitude": -9.1393, "country": "Portugal", "aliases": ["Lisbon", "Lisboa"]},
  {"id": "funchal-pt", "displayName": "Funchal, Madeira", "latitude": 32.6669, "longitude": -16.9241, "country": "Portugal", "aliases": ["Funchal", "Madeira", "Funchal Madeira"]},
  {"id": "ponta-delgada-pt", "displayName": "Ponta Delgada, Azores", "latitude": 37.7483, "longitude": -25.6666, "country": "Portugal", "aliases": ["Ponta Delgada", "Azores", "São Miguel"]},
  {"id": "porto-pt", "displayName": "Porto (Leixoes), Portugal", "latitude": 41.1838, "longitude": -8.7056, "country": "Portugal", "aliases": ["Porto", "Leixoes", "Leixões", "Porto (Leixoes)"]},
  {"id": "horta-pt", "displayName": "Horta, Azores", "latitude": 38.5394, "longitude": -28.6329, "country": "Portugal", "aliases": ["Horta", "Faial"]},
  {"id": "praia-da-vitoria-pt", "displayName": "Praia da Vitoria, Azores", "latitude": 38.7326, "longitude": -27.0662, "country": "Portugal", "aliases": ["Praia da Vitoria", "Terceira"]},

  {"id": "piraeus-gr", "displayName": "Piraeus (Athens), Greece", "latitude": 37.9475, "longitude": 23.6372, "country": "Greece", "aliases": ["Piraeus", "Athens", "Piraeus (Athens)", "Port of Piraeus"]},
  {"id": "santorini-gr", "displayName": "Santorini, Greece", "latitude": 36.3932, "longitude": 25.4615, "country": "Greece", "aliases": ["Santorini", "Thira", "Fira"]},
  {"id": "mykonos-gr", "displayName": "Mykonos, Greece", "latitude": 37.4467, "longitude": 25.3289, "country": "Greece", "aliases": ["Mykonos"]},
  {"id": "corfu-gr", "displayName": "Corfu, Greece", "latitude": 39.6243, "longitude": 19.9217, "country": "Greece", "aliases": ["Corfu", "Kerkyra"]},
  {"id": "rhodes-gr", "displayName": "Rhodes, Greece", "latitude": 36.4510, "longitude": 28.2227, "country": "Greece", "aliases": ["Rhodes"]},
  {"id": "crete-gr", "displayName": "Heraklion, Crete", "latitude": 35.3387, "longitude": 25.1442, "country": "Greece", "aliases": ["Heraklion", "Crete", "Iraklion"]},
  {"id": "chania-gr", "displayName": "Chania (Souda), Crete", "latitude": 35.4832, "longitude": 24.0725, "country": "Greece", "aliases": ["Chania", "Souda", "Chania (Souda)"]},
  {"id": "katakolon-gr", "displayName": "Katakolon (Olympia), Greece", "latitude": 37.6417, "longitude": 21.3200, "country": "Greece", "aliases": ["Katakolon", "Olympia"]},
  {"id": "nafplion-gr", "displayName": "Nafplion, Greece", "latitude": 37.5673, "longitude": 22.8016, "country": "Greece", "aliases": ["Nafplion", "Nauplia"]},
  {"id": "patmos-gr", "displayName": "Patmos, Greece", "latitude": 37.3097, "longitude": 26.5460, "country": "Greece", "aliases": ["Patmos"]},
  {"id": "volos-gr", "displayName": "Volos, Greece", "latitude": 39.3666, "longitude": 22.9425, "country": "Greece", "aliases": ["Volos"]},
  {"id": "thessaloniki-gr", "displayName": "Thessaloniki, Greece", "latitude": 40.6401, "longitude": 22.9444, "country": "Greece", "aliases": ["Thessaloniki"]},
  {"id": "zakynthos-gr", "displayName": "Zakynthos, Greece", "latitude": 37.7872, "longitude": 20.8979, "country": "Greece", "aliases": ["Zakynthos", "Zante"]},
  {"id": "skiathos-gr", "displayName": "Skiathos, Greece", "latitude": 39.1622, "longitude": 23.4890, "country": "Greece", "aliases": ["Skiathos"]},

  {"id": "dubrovnik-hr", "displayName": "Dubrovnik, Croatia", "latitude": 42.6507, "longitude": 18.0944, "country": "Croatia", "aliases": ["Dubrovnik"]},
  {"id": "split-hr", "displayName": "Split, Croatia", "latitude": 43.5081, "longitude": 16.4402, "country": "Croatia", "aliases": ["Split"]},
  {"id": "zadar-hr", "displayName": "Zadar, Croatia", "latitude": 44.1194, "longitude": 15.2314, "country": "Croatia", "aliases": ["Zadar"]},
  {"id": "hvar-hr", "displayName": "Hvar, Croatia", "latitude": 43.1729, "longitude": 16.4412, "country": "Croatia", "aliases": ["Hvar"]},
  {"id": "korcula-hr", "displayName": "Korcula, Croatia", "latitude": 42.9611, "longitude": 17.1358, "country": "Croatia", "aliases": ["Korcula", "Korčula"]},
  {"id": "kotor-me", "displayName": "Kotor, Montenegro", "latitude": 42.4247, "longitude": 18.7712, "country": "Montenegro", "aliases": ["Kotor"]},
  {"id": "koper-si", "displayName": "Koper, Slovenia", "latitude": 45.5469, "longitude": 13.7290, "country": "Slovenia", "aliases": ["Koper"]},

  {"id": "istanbul-tr", "displayName": "Istanbul, Turkey", "latitude": 41.0082, "longitude": 28.9784, "country": "Turkey", "aliases": ["Istanbul", "Constantinople"]},
  {"id": "kusadasi-tr", "displayName": "Kusadasi (Ephesus), Turkey", "latitude": 37.8579, "longitude": 27.2610, "country": "Turkey", "aliases": ["Kusadasi", "Kuşadası", "Ephesus", "Kusadasi (Ephesus)"]},
  {"id": "bodrum-tr", "displayName": "Bodrum, Turkey", "latitude": 37.0344, "longitude": 27.4305, "country": "Turkey", "aliases": ["Bodrum"]},
  {"id": "antalya-tr", "displayName": "Antalya, Turkey", "latitude": 36.8969, "longitude": 30.7133, "country": "Turkey", "aliases": ["Antalya"]},
  {"id": "marmaris-tr", "displayName": "Marmaris, Turkey", "latitude": 36.8519, "longitude": 28.2741, "country": "Turkey", "aliases": ["Marmaris"]},
  {"id": "valletta-mt", "displayName": "Valletta, Malta", "latitude": 35.8989, "longitude": 14.5146, "country": "Malta", "aliases": ["Valletta", "Malta"]},
  {"id": "limassol-cy", "displayName": "Limassol, Cyprus", "latitude": 34.6786, "longitude": 33.0413, "country": "Cyprus", "aliases": ["Limassol", "Cyprus"]},
  {"id": "haifa-il", "displayName": "Haifa, Israel", "latitude": 32.7940, "longitude": 34.9896, "country": "Israel", "aliases": ["Haifa", "Israel"]},
  {"id": "ashdod-il", "displayName": "Ashdod, Israel", "latitude": 31.8044, "longitude": 34.6553, "country": "Israel", "aliases": ["Ashdod"]},
  {"id": "alexandria-eg", "displayName": "Alexandria, Egypt", "latitude": 31.2001, "longitude": 29.9187, "country": "Egypt", "aliases": ["Alexandria", "Egypt"]},
  {"id": "port-said-eg", "displayName": "Port Said, Egypt", "latitude": 31.2653, "longitude": 32.3019, "country": "Egypt", "aliases": ["Port Said", "Suez Canal"]},
  {"id": "casablanca-ma", "displayName": "Casablanca, Morocco", "latitude": 33.5731, "longitude": -7.5898, "country": "Morocco", "aliases": ["Casablanca"]},
  {"id": "tangier-ma", "displayName": "Tangier, Morocco", "latitude": 35.7595, "longitude": -5.8340, "country": "Morocco", "aliases": ["Tangier", "Tanger"]},
  {"id": "tunis-tn", "displayName": "La Goulette (Tunis), Tunisia", "latitude": 36.8190, "longitude": 10.3050, "country": "Tunisia", "aliases": ["La Goulette", "Tunis", "Tunisia"]},

  {"id": "copenhagen-dk", "displayName": "Copenhagen, Denmark", "latitude": 55.6761, "longitude": 12.5683, "country": "Denmark", "aliases": ["Copenhagen", "København"]},
  {"id": "aarhus-dk", "displayName": "Aarhus, Denmark", "latitude": 56.1629, "longitude": 10.2039, "country": "Denmark", "aliases": ["Aarhus", "Århus"]},
  {"id": "stockholm-se", "displayName": "Stockholm, Sweden", "latitude": 59.3293, "longitude": 18.0686, "country": "Sweden", "aliases": ["Stockholm"]},
  {"id": "gothenburg-se", "displayName": "Gothenburg, Sweden", "latitude": 57.7089, "longitude": 11.9746, "country": "Sweden", "aliases": ["Gothenburg", "Göteborg"]},
  {"id": "visby-se", "displayName": "Visby, Gotland, Sweden", "latitude": 57.6348, "longitude": 18.2948, "country": "Sweden", "aliases": ["Visby", "Gotland"]},
  {"id": "oslo-no", "displayName": "Oslo, Norway", "latitude": 59.9139, "longitude": 10.7522, "country": "Norway", "aliases": ["Oslo"]},
  {"id": "bergen-no", "displayName": "Bergen, Norway", "latitude": 60.3913, "longitude": 5.3221, "country": "Norway", "aliases": ["Bergen"]},
  {"id": "geiranger-no", "displayName": "Geiranger, Norway", "latitude": 62.1012, "longitude": 7.2060, "country": "Norway", "aliases": ["Geiranger", "Geirangerfjord"]},
  {"id": "flam-no", "displayName": "Flam, Norway", "latitude": 60.8628, "longitude": 7.1137, "country": "Norway", "aliases": ["Flam", "Flåm"]},
  {"id": "alesund-no", "displayName": "Alesund, Norway", "latitude": 62.4722, "longitude": 6.1495, "country": "Norway", "aliases": ["Alesund", "Ålesund"]},
  {"id": "stavanger-no", "displayName": "Stavanger, Norway", "latitude": 58.9700, "longitude": 5.7331, "country": "Norway", "aliases": ["Stavanger"]},
  {"id": "tromso-no", "displayName": "Tromso, Norway", "latitude": 69.6492, "longitude": 18.9553, "country": "Norway", "aliases": ["Tromso", "Tromsø"]},
  {"id": "kristiansand-no", "displayName": "Kristiansand, Norway", "latitude": 58.1599, "longitude": 8.0182, "country": "Norway", "aliases": ["Kristiansand"]},
  {"id": "haugesund-no", "displayName": "Haugesund, Norway", "latitude": 59.4138, "longitude": 5.2680, "country": "Norway", "aliases": ["Haugesund"]},
  {"id": "molde-no", "displayName": "Molde, Norway", "latitude": 62.7375, "longitude": 7.1591, "country": "Norway", "aliases": ["Molde"]},
  {"id": "olden-no", "displayName": "Olden, Norway", "latitude": 61.8314, "longitude": 6.8118, "country": "Norway", "aliases": ["Olden"]},
  {"id": "honningsvag-no", "displayName": "Honningsvag (North Cape), Norway", "latitude": 70.9827, "longitude": 25.9708, "country": "Norway", "aliases": ["Honningsvag", "Honningsvåg", "North Cape", "Nordkapp"]},
  {"id": "bodo-no", "displayName": "Bodo, Norway", "latitude": 67.2804, "longitude": 14.4049, "country": "Norway", "aliases": ["Bodo", "Bodø"]},
  {"id": "lofoten-no", "displayName": "Leknes, Lofoten, Norway", "latitude": 68.1488, "longitude": 13.6104, "country": "Norway", "aliases": ["Lofoten", "Leknes", "Gravdal"]},
  {"id": "skjolden-no", "displayName": "Skjolden, Norway", "latitude": 61.4903, "longitude": 7.5983, "country": "Norway", "aliases": ["Skjolden"]},
  {"id": "eidfjord-no", "displayName": "Eidfjord, Norway", "latitude": 60.4670, "longitude": 7.0696, "country": "Norway", "aliases": ["Eidfjord"]},
  {"id": "hellesylt-no", "displayName": "Hellesylt, Norway", "latitude": 62.0853, "longitude": 6.8683, "country": "Norway", "aliases": ["Hellesylt"]},
  {"id": "hammerfest-no", "displayName": "Hammerfest, Norway", "latitude": 70.6634, "longitude": 23.6821, "country": "Norway", "aliases": ["Hammerfest"]},
  {"id": "narvik-no", "displayName": "Narvik, Norway", "latitude": 68.4385, "longitude": 17.4272, "country": "Norway", "aliases": ["Narvik"]},
  {"id": "alta-no", "displayName": "Alta, Norway", "latitude": 69.9689, "longitude": 23.2716, "country": "Norway", "aliases": ["Alta"]},
  {"id": "helsinki-fi", "displayName": "Helsinki, Finland", "latitude": 60.1699, "longitude": 24.9384, "country": "Finland", "aliases": ["Helsinki"]},
  {"id": "turku-fi", "displayName": "Turku, Finland", "latitude": 60.4518, "longitude": 22.2666, "country": "Finland", "aliases": ["Turku"]},
  {"id": "tallinn-ee", "displayName": "Tallinn, Estonia", "latitude": 59.4370, "longitude": 24.7536, "country": "Estonia", "aliases": ["Tallinn"]},
  {"id": "riga-lv", "displayName": "Riga, Latvia", "latitude": 56.9496, "longitude": 24.1052, "country": "Latvia", "aliases": ["Riga"]},
  {"id": "klaipeda-lt", "displayName": "Klaipeda, Lithuania", "latitude": 55.7033, "longitude": 21.1443, "country": "Lithuania", "aliases": ["Klaipeda"]},
  {"id": "gdansk-pl", "displayName": "Gdansk (Gdynia), Poland", "latitude": 54.5189, "longitude": 18.5305, "country": "Poland", "aliases": ["Gdansk", "Gdynia", "Gdańsk"]},
  {"id": "warnemunde-de", "displayName": "Warnemunde (Berlin), Germany", "latitude": 54.1776, "longitude": 12.0893, "country": "Germany", "aliases": ["Warnemunde", "Warnemünde", "Rostock", "Berlin"]},
  {"id": "hamburg-de", "displayName": "Hamburg, Germany", "latitude": 53.5511, "longitude": 9.9937, "country": "Germany", "aliases": ["Hamburg"]},
  {"id": "kiel-de", "displayName": "Kiel, Germany", "latitude": 54.3233, "longitude": 10.1228, "country": "Germany", "aliases": ["Kiel"]},
  {"id": "bremerhaven-de", "displayName": "Bremerhaven, Germany", "latitude": 53.5396, "longitude": 8.5809, "country": "Germany", "aliases": ["Bremerhaven"]},
  {"id": "st-petersburg-ru", "displayName": "St. Petersburg, Russia", "latitude": 59.9343, "longitude": 30.3351, "country": "Russia", "aliases": ["St Petersburg", "St. Petersburg", "Saint Petersburg"]},
  {"id": "amsterdam-nl", "displayName": "Amsterdam, Netherlands", "latitude": 52.3676, "longitude": 4.9041, "country": "Netherlands", "aliases": ["Amsterdam"]},
  {"id": "rotterdam-nl", "displayName": "Rotterdam, Netherlands", "latitude": 51.9244, "longitude": 4.4777, "country": "Netherlands", "aliases": ["Rotterdam"]},
  {"id": "bruges-be", "displayName": "Bruges (Zeebrugge), Belgium", "latitude": 51.3285, "longitude": 3.1747, "country": "Belgium", "aliases": ["Bruges", "Zeebrugge", "Bruges (Zeebrugge)"]},
  {"id": "antwerp-be", "displayName": "Antwerp, Belgium", "latitude": 51.2194, "longitude": 4.4025, "country": "Belgium", "aliases": ["Antwerp"]},
  {"id": "torshavn-fo", "displayName": "Torshavn, Faroe Islands", "latitude": 62.0079, "longitude": -6.7904, "country": "Faroe Islands", "aliases": ["Torshavn", "Tórshavn", "Faroe Islands"]},

  {"id": "reykjavik-is", "displayName": "Reykjavik, Iceland", "latitude": 64.1466, "longitude": -21.9426, "country": "Iceland", "aliases": ["Reykjavik", "Reykjavík", "Iceland"]},
  {"id": "akureyri-is", "displayName": "Akureyri, Iceland", "latitude": 65.6835, "longitude": -18.0878, "country": "Iceland", "aliases": ["Akureyri"]},
  {"id": "isafjordur-is", "displayName": "Isafjordur, Iceland", "latitude": 66.0750, "longitude": -23.1275, "country": "Iceland", "aliases": ["Isafjordur", "Ísafjörður", "Isafjörður"]},
  {"id": "husavik-is", "displayName": "Husavik, Iceland", "latitude": 66.0449, "longitude": -17.3380, "country": "Iceland", "aliases": ["Husavik", "Húsavík"]},
  {"id": "seydisfjordur-is", "displayName": "Seydisfjordur, Iceland", "latitude": 65.2614, "longitude": -14.0131, "country": "Iceland", "aliases": ["Seydisfjordur", "Seyðisfjörður"]},
  {"id": "heimaey-is", "displayName": "Heimaey, Westman Islands, Iceland", "latitude": 63.4395, "longitude": -20.2688, "country": "Iceland", "aliases": ["Heimaey", "Westman Islands", "Vestmannaeyjar"]},
  {"id": "grundarfjordur-is", "displayName": "Grundarfjordur, Iceland", "latitude": 64.9256, "longitude": -23.2555, "country": "Iceland", "aliases": ["Grundarfjordur", "Grundarfjörður"]},
  {"id": "djupivogur-is", "displayName": "Djupivogur, Iceland", "latitude": 64.6509, "longitude": -14.2625, "country": "Iceland", "aliases": ["Djupivogur", "Djúpivogur"]},
  {"id": "patreksfjordur-is", "displayName": "Patreksfjordur, Iceland", "latitude": 65.6050, "longitude": -23.9972, "country": "Iceland", "aliases": ["Patreksfjordur", "Patreksfjörður"]},

  {"id": "nuuk-gl", "displayName": "Nuuk, Greenland", "latitude": 64.1814, "longitude": -51.6941, "country": "Greenland", "aliases": ["Nuuk", "Godthab"]},
  {"id": "ilulissat-gl", "displayName": "Ilulissat, Greenland", "latitude": 69.2198, "longitude": -51.0986, "country": "Greenland", "aliases": ["Ilulissat"]},
  {"id": "qaqortoq-gl", "displayName": "Qaqortoq, Greenland", "latitude": 60.7184, "longitude": -46.0353, "country": "Greenland", "aliases": ["Qaqortoq", "Julianehab"]},
  {"id": "nanortalik-gl", "displayName": "Nanortalik, Greenland", "latitude": 60.1431, "longitude": -45.2372, "country": "Greenland", "aliases": ["Nanortalik"]},
  {"id": "narsarsuaq-gl", "displayName": "Narsarsuaq, Greenland", "latitude": 61.1606, "longitude": -45.4264, "country": "Greenland", "aliases": ["Narsarsuaq"]},

  {"id": "longyearbyen-sj", "displayName": "Longyearbyen, Svalbard", "latitude": 78.2232, "longitude": 15.6267, "country": "Norway", "aliases": ["Longyearbyen", "Svalbard", "Spitsbergen"]},

  {"id": "dubai-ae", "displayName": "Dubai, UAE", "latitude": 25.2048, "longitude": 55.2708, "country": "United Arab Emirates", "aliases": ["Dubai", "Port Rashid", "Dubai UAE"]},
  {"id": "abu-dhabi-ae", "displayName": "Abu Dhabi, UAE", "latitude": 24.4539, "longitude": 54.3773, "country": "United Arab Emirates", "aliases": ["Abu Dhabi"]},
  {"id": "muscat-om", "displayName": "Muscat, Oman", "latitude": 23.6139, "longitude": 58.5922, "country": "Oman", "aliases": ["Muscat"]},
  {"id": "doha-qa", "displayName": "Doha, Qatar", "latitude": 25.2854, "longitude": 51.5310, "country": "Qatar", "aliases": ["Doha"]},
  {"id": "aqaba-jo", "displayName": "Aqaba, Jordan", "latitude": 29.5267, "longitude": 35.0078, "country": "Jordan", "aliases": ["Aqaba"]},
  {"id": "salalah-om", "displayName": "Salalah, Oman", "latitude": 17.0151, "longitude": 54.0924, "country": "Oman", "aliases": ["Salalah"]},
  {"id": "bahrain-bh", "displayName": "Manama, Bahrain", "latitude": 26.2285, "longitude": 50.5860, "country": "Bahrain", "aliases": ["Bahrain", "Manama"]},

  {"id": "singapore-sg", "displayName": "Singapore", "latitude": 1.2644, "longitude": 103.8198, "country": "Singapore", "aliases": ["Singapore", "Port of Singapore"]},
  {"id": "hong-kong-hk", "displayName": "Hong Kong", "latitude": 22.3193, "longitude": 114.1694, "country": "Hong Kong", "aliases": ["Hong Kong"]},
  {"id": "tokyo-jp", "displayName": "Tokyo (Yokohama), Japan", "latitude": 35.4437, "longitude": 139.6380, "country": "Japan", "aliases": ["Tokyo", "Yokohama", "Tokyo (Yokohama)"]},
  {"id": "kobe-jp", "displayName": "Kobe, Japan", "latitude": 34.6901, "longitude": 135.1956, "country": "Japan", "aliases": ["Kobe"]},
  {"id": "nagasaki-jp", "displayName": "Nagasaki, Japan", "latitude": 32.7503, "longitude": 129.8779, "country": "Japan", "aliases": ["Nagasaki"]},
  {"id": "osaka-jp", "displayName": "Osaka, Japan", "latitude": 34.6937, "longitude": 135.5023, "country": "Japan", "aliases": ["Osaka"]},
  {"id": "hakodate-jp", "displayName": "Hakodate, Japan", "latitude": 41.7687, "longitude": 140.7288, "country": "Japan", "aliases": ["Hakodate"]},
  {"id": "aomori-jp", "displayName": "Aomori, Japan", "latitude": 40.8244, "longitude": 140.7400, "country": "Japan", "aliases": ["Aomori"]},
  {"id": "hiroshima-jp", "displayName": "Hiroshima, Japan", "latitude": 34.3853, "longitude": 132.4553, "country": "Japan", "aliases": ["Hiroshima"]},
  {"id": "okinawa-jp", "displayName": "Naha, Okinawa, Japan", "latitude": 26.2124, "longitude": 127.6809, "country": "Japan", "aliases": ["Okinawa", "Naha"]},
  {"id": "busan-kr", "displayName": "Busan, South Korea", "latitude": 35.1796, "longitude": 129.0756, "country": "South Korea", "aliases": ["Busan", "Pusan"]},
  {"id": "jeju-kr", "displayName": "Jeju, South Korea", "latitude": 33.5104, "longitude": 126.5219, "country": "South Korea", "aliases": ["Jeju", "Jeju Island"]},
  {"id": "shanghai-cn", "displayName": "Shanghai, China", "latitude": 31.2304, "longitude": 121.4737, "country": "China", "aliases": ["Shanghai"]},
  {"id": "beijing-cn", "displayName": "Tianjin (Beijing), China", "latitude": 39.0842, "longitude": 117.2010, "country": "China", "aliases": ["Tianjin", "Beijing", "Tianjin (Beijing)"]},
  {"id": "xiamen-cn", "displayName": "Xiamen, China", "latitude": 24.4798, "longitude": 118.0894, "country": "China", "aliases": ["Xiamen"]},
  {"id": "taipei-tw", "displayName": "Keelung (Taipei), Taiwan", "latitude": 25.1276, "longitude": 121.7392, "country": "Taiwan", "aliases": ["Keelung", "Taipei", "Keelung (Taipei)"]},
  {"id": "colombo-lk", "displayName": "Colombo, Sri Lanka", "latitude": 6.9271, "longitude": 79.8612, "country": "Sri Lanka", "aliases": ["Colombo", "Sri Lanka"]},
  {"id": "mumbai-in", "displayName": "Mumbai, India", "latitude": 18.9220, "longitude": 72.8347, "country": "India", "aliases": ["Mumbai", "Bombay"]},
  {"id": "goa-in", "displayName": "Mormugao (Goa), India", "latitude": 15.3990, "longitude": 73.7957, "country": "India", "aliases": ["Goa", "Mormugao"]},
  {"id": "cochin-in", "displayName": "Cochin (Kochi), India", "latitude": 9.9312, "longitude": 76.2673, "country": "India", "aliases": ["Cochin", "Kochi"]},
  {"id": "phuket-th", "displayName": "Phuket, Thailand", "latitude": 7.8804, "longitude": 98.3923, "country": "Thailand", "aliases": ["Phuket"]},
  {"id": "ko-samui-th", "displayName": "Ko Samui, Thailand", "latitude": 9.5120, "longitude": 100.0136, "country": "Thailand", "aliases": ["Ko Samui", "Koh Samui"]},
  {"id": "bangkok-th", "displayName": "Laem Chabang (Bangkok), Thailand", "latitude": 13.0859, "longitude": 100.8810, "country": "Thailand", "aliases": ["Laem Chabang", "Bangkok"]},
  {"id": "ho-chi-minh-vn", "displayName": "Ho Chi Minh City (Phu My), Vietnam", "latitude": 10.5515, "longitude": 107.0144, "country": "Vietnam", "aliases": ["Ho Chi Minh City", "Phu My", "Saigon"]},
  {"id": "da-nang-vn", "displayName": "Da Nang (Hue), Vietnam", "latitude": 16.0544, "longitude": 108.2022, "country": "Vietnam", "aliases": ["Da Nang", "Hue", "Chan May"]},
  {"id": "ha-long-vn", "displayName": "Ha Long Bay, Vietnam", "latitude": 20.9101, "longitude": 107.1839, "country": "Vietnam", "aliases": ["Ha Long Bay", "Halong Bay"]},
  {"id": "manila-ph", "displayName": "Manila, Philippines", "latitude": 14.5995, "longitude": 120.9842, "country": "Philippines", "aliases": ["Manila"]},
  {"id": "boracay-ph", "displayName": "Boracay, Philippines", "latitude": 11.9674, "longitude": 121.9248, "country": "Philippines", "aliases": ["Boracay"]},
  {"id": "bali-id", "displayName": "Bali (Benoa), Indonesia", "latitude": -8.7467, "longitude": 115.2115, "country": "Indonesia", "aliases": ["Bali", "Benoa", "Denpasar"]},
  {"id": "komodo-id", "displayName": "Komodo Island, Indonesia", "latitude": -8.5500, "longitude": 119.4833, "country": "Indonesia", "aliases": ["Komodo"]},
  {"id": "penang-my", "displayName": "Penang, Malaysia", "latitude": 5.4141, "longitude": 100.3288, "country": "Malaysia", "aliases": ["Penang", "Georgetown Penang"]},
  {"id": "langkawi-my", "displayName": "Langkawi, Malaysia", "latitude": 6.3500, "longitude": 99.8000, "country": "Malaysia", "aliases": ["Langkawi"]},
  {"id": "kuala-lumpur-my", "displayName": "Port Klang (Kuala Lumpur), Malaysia", "latitude": 3.0000, "longitude": 101.3900, "country": "Malaysia", "aliases": ["Port Klang", "Kuala Lumpur"]},
  {"id": "yangon-mm", "displayName": "Yangon, Myanmar", "latitude": 16.8661, "longitude": 96.1951, "country": "Myanmar", "aliases": ["Yangon", "Rangoon"]},
  {"id": "siem-reap-kh", "displayName": "Sihanoukville, Cambodia", "latitude": 10.6093, "longitude": 103.5296, "country": "Cambodia", "aliases": ["Sihanoukville", "Cambodia"]},
  {"id": "male-mv", "displayName": "Male, Maldives", "latitude": 4.1755, "longitude": 73.5093, "country": "Maldives", "aliases": ["Male", "Maldives"]},

  {"id": "maui-us", "displayName": "Maui (Kahului), Hawaii", "latitude": 20.8953, "longitude": -156.4764, "country": "United States", "aliases": ["Maui", "Kahului", "Lahaina"]},
  {"id": "kona-us", "displayName": "Kona (Kailua-Kona), Hawaii", "latitude": 19.6400, "longitude": -155.9969, "country": "United States", "aliases": ["Kona", "Kailua-Kona", "Big Island"]},
  {"id": "hilo-us", "displayName": "Hilo, Hawaii", "latitude": 19.7297, "longitude": -155.0900, "country": "United States", "aliases": ["Hilo"]},
  {"id": "nawiliwili-us", "displayName": "Nawiliwili (Kauai), Hawaii", "latitude": 21.9544, "longitude": -159.3560, "country": "United States", "aliases": ["Nawiliwili", "Kauai", "Nawiliwili (Kauai)"]},

  {"id": "cape-town-za", "displayName": "Cape Town, South Africa", "latitude": -33.9249, "longitude": 18.4241, "country": "South Africa", "aliases": ["Cape Town"]},
  {"id": "durban-za", "displayName": "Durban, South Africa", "latitude": -29.8587, "longitude": 31.0218, "country": "South Africa", "aliases": ["Durban"]},
  {"id": "port-elizabeth-za", "displayName": "Port Elizabeth, South Africa", "latitude": -33.9608, "longitude": 25.6022, "country": "South Africa", "aliases": ["Port Elizabeth", "Gqeberha"]},
  {"id": "walvis-bay-na", "displayName": "Walvis Bay, Namibia", "latitude": -22.9576, "longitude": 14.5054, "country": "Namibia", "aliases": ["Walvis Bay"]},
  {"id": "port-louis-mu", "displayName": "Port Louis, Mauritius", "latitude": -20.1609, "longitude": 57.5012, "country": "Mauritius", "aliases": ["Mauritius", "Port Louis"]},
  {"id": "victoria-sc", "displayName": "Victoria, Seychelles", "latitude": -4.6191, "longitude": 55.4513, "country": "Seychelles", "aliases": ["Seychelles", "Victoria Seychelles", "Mahe"]},
  {"id": "nosy-be-mg", "displayName": "Nosy Be, Madagascar", "latitude": -13.3270, "longitude": 48.2582, "country": "Madagascar", "aliases": ["Nosy Be", "Madagascar"]},
  {"id": "mombasa-ke", "displayName": "Mombasa, Kenya", "latitude": -4.0435, "longitude": 39.6682, "country": "Kenya", "aliases": ["Mombasa"]},
  {"id": "zanzibar-tz", "displayName": "Zanzibar, Tanzania", "latitude": -6.1622, "longitude": 39.1921, "country": "Tanzania", "aliases": ["Zanzibar", "Stone Town"]},
  {"id": "maputo-mz", "displayName": "Maputo, Mozambique", "latitude": -25.9692, "longitude": 32.5732, "country": "Mozambique", "aliases": ["Maputo"]},
  {"id": "dakar-sn", "displayName": "Dakar, Senegal", "latitude": 14.7167, "longitude": -17.4677, "country": "Senegal", "aliases": ["Dakar"]},
  {"id": "tema-gh", "displayName": "Tema (Accra), Ghana", "latitude": 5.6615, "longitude": -0.0167, "country": "Ghana", "aliases": ["Tema", "Accra"]},

  {"id": "santos-br", "displayName": "Santos (Sao Paulo), Brazil", "latitude": -23.9608, "longitude": -46.3336, "country": "Brazil", "aliases": ["Santos", "Sao Paulo", "São Paulo"]},
  {"id": "rio-br", "displayName": "Rio de Janeiro, Brazil", "latitude": -22.9068, "longitude": -43.1729, "country": "Brazil", "aliases": ["Rio de Janeiro", "Rio"]},
  {"id": "salvador-br", "displayName": "Salvador, Brazil", "latitude": -12.9714, "longitude": -38.5124, "country": "Brazil", "aliases": ["Salvador", "Salvador de Bahia"]},
  {"id": "recife-br", "displayName": "Recife, Brazil", "latitude": -8.0476, "longitude": -34.8770, "country": "Brazil", "aliases": ["Recife"]},
  {"id": "manaus-br", "displayName": "Manaus, Brazil", "latitude": -3.1190, "longitude": -60.0217, "country": "Brazil", "aliases": ["Manaus", "Amazon"]},
  {"id": "buenos-aires-ar", "displayName": "Buenos Aires, Argentina", "latitude": -34.6037, "longitude": -58.3816, "country": "Argentina", "aliases": ["Buenos Aires"]},
  {"id": "ushuaia-ar", "displayName": "Ushuaia, Argentina", "latitude": -54.8019, "longitude": -68.3030, "country": "Argentina", "aliases": ["Ushuaia"]},
  {"id": "valparaiso-cl", "displayName": "Valparaiso, Chile", "latitude": -33.0472, "longitude": -71.6127, "country": "Chile", "aliases": ["Valparaiso", "Valparaíso", "Santiago"]},
  {"id": "punta-arenas-cl", "displayName": "Punta Arenas, Chile", "latitude": -53.1638, "longitude": -70.9171, "country": "Chile", "aliases": ["Punta Arenas"]},
  {"id": "lima-pe", "displayName": "Lima (Callao), Peru", "latitude": -12.0464, "longitude": -77.1428, "country": "Peru", "aliases": ["Lima", "Callao", "Lima (Callao)"]},
  {"id": "montevideo-uy", "displayName": "Montevideo, Uruguay", "latitude": -34.9011, "longitude": -56.1645, "country": "Uruguay", "aliases": ["Montevideo"]},
  {"id": "cartagena-co-sa", "displayName": "Santa Marta, Colombia", "latitude": 11.2408, "longitude": -74.1990, "country": "Colombia", "aliases": ["Santa Marta"]},
  {"id": "puerto-montt-cl", "displayName": "Puerto Montt, Chile", "latitude": -41.4693, "longitude": -72.9424, "country": "Chile", "aliases": ["Puerto Montt"]},
  {"id": "falkland-fk", "displayName": "Stanley, Falkland Islands", "latitude": -51.7010, "longitude": -57.8517, "country": "Falkland Islands", "aliases": ["Stanley", "Falklands", "Falkland Islands", "Port Stanley"]},
  {"id": "punta-del-este-uy", "displayName": "Punta del Este, Uruguay", "latitude": -34.9667, "longitude": -54.9500, "country": "Uruguay", "aliases": ["Punta del Este"]},
  {"id": "isla-de-pascua-cl", "displayName": "Easter Island, Chile", "latitude": -27.1127, "longitude": -109.3497, "country": "Chile", "aliases": ["Easter Island", "Rapa Nui", "Isla de Pascua"]},
  {"id": "guayaquil-ec", "displayName": "Guayaquil (Manta), Ecuador", "latitude": -0.9538, "longitude": -80.7328, "country": "Ecuador", "aliases": ["Manta", "Guayaquil"]},
  {"id": "galapagos-ec", "displayName": "Galapagos Islands, Ecuador", "latitude": -0.9538, "longitude": -90.9656, "country": "Ecuador", "aliases": ["Galapagos", "Galápagos"]},

  {"id": "sydney-au", "displayName": "Sydney, Australia", "latitude": -33.8688, "longitude": 151.2093, "country": "Australia", "aliases": ["Sydney", "Sydney Australia"]},
  {"id": "melbourne-au", "displayName": "Melbourne, Australia", "latitude": -37.8136, "longitude": 144.9631, "country": "Australia", "aliases": ["Melbourne"]},
  {"id": "brisbane-au", "displayName": "Brisbane, Australia", "latitude": -27.4705, "longitude": 153.0260, "country": "Australia", "aliases": ["Brisbane"]},
  {"id": "cairns-au", "displayName": "Cairns, Australia", "latitude": -16.9186, "longitude": 145.7781, "country": "Australia", "aliases": ["Cairns"]},
  {"id": "darwin-au", "displayName": "Darwin, Australia", "latitude": -12.4634, "longitude": 130.8456, "country": "Australia", "aliases": ["Darwin"]},
  {"id": "hobart-au", "displayName": "Hobart, Tasmania, Australia", "latitude": -42.8821, "longitude": 147.3272, "country": "Australia", "aliases": ["Hobart", "Tasmania"]},
  {"id": "perth-au", "displayName": "Fremantle (Perth), Australia", "latitude": -32.0569, "longitude": 115.7439, "country": "Australia", "aliases": ["Fremantle", "Perth"]},
  {"id": "adelaide-au", "displayName": "Adelaide, Australia", "latitude": -34.9285, "longitude": 138.6007, "country": "Australia", "aliases": ["Adelaide"]},
  {"id": "kangaroo-island-au", "displayName": "Kangaroo Island, Australia", "latitude": -35.7752, "longitude": 137.2142, "country": "Australia", "aliases": ["Kangaroo Island"]},
  {"id": "auckland-nz", "displayName": "Auckland, New Zealand", "latitude": -36.8485, "longitude": 174.7633, "country": "New Zealand", "aliases": ["Auckland"]},
  {"id": "wellington-nz", "displayName": "Wellington, New Zealand", "latitude": -41.2865, "longitude": 174.7762, "country": "New Zealand", "aliases": ["Wellington"]},
  {"id": "christchurch-nz", "displayName": "Christchurch (Lyttelton), New Zealand", "latitude": -43.6047, "longitude": 172.7184, "country": "New Zealand", "aliases": ["Christchurch", "Lyttelton"]},
  {"id": "queenstown-nz", "displayName": "Queenstown (Milford Sound), New Zealand", "latitude": -45.0312, "longitude": 168.6626, "country": "New Zealand", "aliases": ["Queenstown", "Milford Sound", "Fiordland"]},
  {"id": "tauranga-nz", "displayName": "Tauranga, New Zealand", "latitude": -37.6878, "longitude": 176.1651, "country": "New Zealand", "aliases": ["Tauranga", "Bay of Plenty"]},
  {"id": "napier-nz", "displayName": "Napier (Hawke's Bay), New Zealand", "latitude": -39.4928, "longitude": 176.9120, "country": "New Zealand", "aliases": ["Napier", "Hawkes Bay"]},
  {"id": "dunedin-nz", "displayName": "Dunedin (Port Chalmers), New Zealand", "latitude": -45.8167, "longitude": 170.6250, "country": "New Zealand", "aliases": ["Dunedin", "Port Chalmers"]},
  {"id": "bay-of-islands-nz", "displayName": "Bay of Islands, New Zealand", "latitude": -35.2616, "longitude": 174.0856, "country": "New Zealand", "aliases": ["Bay of Islands", "Russell", "Paihia"]},

  {"id": "suva-fj", "displayName": "Suva, Fiji", "latitude": -18.1416, "longitude": 178.4419, "country": "Fiji", "aliases": ["Suva", "Fiji"]},
  {"id": "lautoka-fj", "displayName": "Lautoka, Fiji", "latitude": -17.6169, "longitude": 177.4506, "country": "Fiji", "aliases": ["Lautoka"]},
  {"id": "noumea-nc", "displayName": "Noumea, New Caledonia", "latitude": -22.2711, "longitude": 166.4416, "country": "New Caledonia", "aliases": ["Noumea", "New Caledonia"]},
  {"id": "papeete-pf", "displayName": "Papeete, Tahiti", "latitude": -17.5516, "longitude": -149.5585, "country": "French Polynesia", "aliases": ["Papeete", "Tahiti"]},
  {"id": "bora-bora-pf", "displayName": "Bora Bora, French Polynesia", "latitude": -16.5004, "longitude": -151.7415, "country": "French Polynesia", "aliases": ["Bora Bora"]},
  {"id": "moorea-pf", "displayName": "Moorea, French Polynesia", "latitude": -17.5388, "longitude": -149.8295, "country": "French Polynesia", "aliases": ["Moorea"]},
  {"id": "apia-ws", "displayName": "Apia, Samoa", "latitude": -13.8333, "longitude": -171.7500, "country": "Samoa", "aliases": ["Apia", "Samoa"]},
  {"id": "rarotonga-ck", "displayName": "Rarotonga, Cook Islands", "latitude": -21.2367, "longitude": -159.7769, "country": "Cook Islands", "aliases": ["Rarotonga", "Cook Islands"]},
  {"id": "port-vila-vu", "displayName": "Port Vila, Vanuatu", "latitude": -17.7334, "longitude": 168.3273, "country": "Vanuatu", "aliases": ["Port Vila", "Vanuatu"]},
  {"id": "nuku-alofa-to", "displayName": "Nuku'alofa, Tonga", "latitude": -21.2087, "longitude": -175.1982, "country": "Tonga", "aliases": ["Nukualofa", "Tonga"]},
  {"id": "mystery-island-vu", "displayName": "Mystery Island, Vanuatu", "latitude": -20.2200, "longitude": 169.8283, "country": "Vanuatu", "aliases": ["Mystery Island", "Inyeug"]},
  {"id": "ile-des-pins-nc", "displayName": "Isle of Pines, New Caledonia", "latitude": -22.6167, "longitude": 167.4667, "country": "New Caledonia", "aliases": ["Isle of Pines", "Ile des Pins"]},
  {"id": "lifou-nc", "displayName": "Lifou, New Caledonia", "latitude": -20.9167, "longitude": 167.2500, "country": "New Caledonia", "aliases": ["Lifou"]},
  {"id": "dravuni-fj", "displayName": "Dravuni Island, Fiji", "latitude": -18.7667, "longitude": 178.5167, "country": "Fiji", "aliases": ["Dravuni"]},

  {"id": "king-george-aq", "displayName": "King George Island, Antarctica", "latitude": -62.0833, "longitude": -58.3917, "country": "Antarctica", "aliases": ["King George Island", "Antarctica"]},
  {"id": "deception-island-aq", "displayName": "Deception Island, Antarctica", "latitude": -62.9700, "longitude": -60.6300, "country": "Antarctica", "aliases": ["Deception Island"]},
  {"id": "half-moon-island-aq", "displayName": "Half Moon Island, Antarctica", "latitude": -62.5933, "longitude": -59.9150, "country": "Antarctica", "aliases": ["Half Moon Island Antarctica"]},

  {"id": "petropavlovsk-ru", "displayName": "Petropavlovsk-Kamchatsky, Russia", "latitude": 53.0370, "longitude": 158.6510, "country": "Russia", "aliases": ["Petropavlovsk", "Kamchatka"]},
  {"id": "vladivostok-ru", "displayName": "Vladivostok, Russia", "latitude": 43.1332, "longitude": 131.9113, "country": "Russia", "aliases": ["Vladivostok"]},
  {"id": "dutch-harbor-us", "displayName": "Dutch Harbor (Unalaska), Alaska", "latitude": 53.8910, "longitude": -166.5422, "country": "United States", "aliases": ["Dutch Harbor", "Unalaska"]},
  {"id": "nome-us", "displayName": "Nome, Alaska", "latitude": 64.5011, "longitude": -165.4064, "country": "United States", "aliases": ["Nome"]},
  {"id": "astoria-us", "displayName": "Astoria, Oregon", "latitude": 46.1879, "longitude": -123.8313, "country": "United States", "aliases": ["Astoria", "Astoria OR"]},
  {"id": "monterey-us", "displayName": "Monterey, California", "latitude": 36.6002, "longitude": -121.8947, "country": "United States", "aliases": ["Monterey"]},
  {"id": "santa-barbara-us", "displayName": "Santa Barbara, California", "latitude": 34.4208, "longitude": -119.6982, "country": "United States", "aliases": ["Santa Barbara"]},
  {"id": "catalina-us", "displayName": "Catalina Island, California", "latitude": 33.3875, "longitude": -118.4164, "country": "United States", "aliases": ["Catalina Island", "Avalon"]}
]
